[
  {
    "name_translations": {
      "en": "Mount Pleasant",
      "pl": "Mount Pleasant"
    },
    "country_code": "FK",
    "code": "MPN",
    "time_zone": "Atlantic/Stanley",
    "name": "Mount Pleasant",
    "coordinates": {
      "lat": -51.816666,
      "lon": -58.45
    }
  },
  {
    "name_translations": {
      "en": "West Palm Beach",
      "pl": "West Palm Beach"
    },
    "country_code": "US",
    "code": "PBI",
    "time_zone": "America/New_York",
    "name": "West Palm Beach",
    "coordinates": {
      "lat": 26.7153424,
      "lon": -80.0533746
    }
  },
  {
    "name_translations": {
      "en": "Salamanca",
      "pl": "Salamanca"
    },
    "country_code": "ES",
    "code": "SLM",
    "time_zone": "Europe/Madrid",
    "name": "Salamanca",
    "coordinates": {
      "lat": 40.966667,
      "lon": -5.65
    }
  },
  {
    "name_translations": {
      "en": "San Jose del Cabo",
      "pl": "San José del Cabo"
    },
    "country_code": "MX",
    "code": "SJD",
    "time_zone": "America/Mazatlan",
    "name": "San Jose del Cabo",
    "coordinates": {
      "lat": 23.076216570461312,
      "lon": -109.71547733679438
    }
  },
  {
    "name_translations": {
      "en": "Saratov",
      "pl": "Saratów"
    },
    "country_code": "RU",
    "code": "RTW",
    "time_zone": "Europe/Samara",
    "name": "Saratov",
    "coordinates": {
      "lat": 51.566666,
      "lon": 46.066666
    }
  },
  {
    "name_translations": {
      "en": "Maputo",
      "pl": "Maputo"
    },
    "country_code": "MZ",
    "code": "MPM",
    "time_zone": "Africa/Maputo",
    "name": "Maputo",
    "coordinates": {
      "lat": -25.924389,
      "lon": 32.57429
    }
  },
  {
    "name_translations": {
      "en": "Havana",
      "pl": "Hawana"
    },
    "country_code": "CU",
    "code": "HAV",
    "time_zone": "America/Havana",
    "name": "Havana",
    "coordinates": {
      "lat": 22.99845,
      "lon": -82.40818
    }
  },
  {
    "name_translations": {
      "en": "Manila",
      "pl": "Manila"
    },
    "country_code": "PH",
    "code": "MNL",
    "time_zone": "Asia/Manila",
    "name": "Manila",
    "coordinates": {
      "lat": 14.5995124,
      "lon": 120.9842195
    }
  },
  {
    "name_translations": {
      "en": "Lae",
      "pl": "Nadzar"
    },
    "country_code": "PG",
    "code": "LAE",
    "time_zone": "Pacific/Port_Moresby",
    "name": "Lae",
    "coordinates": {
      "lat": -6.562694,
      "lon": 146.72757
    }
  },
  {
    "name_translations": {
      "en": "Ushuaia",
      "pl": "Ushuaia"
    },
    "country_code": "AR",
    "code": "USH",
    "time_zone": "America/Argentina/Ushuaia",
    "name": "Ushuaia",
    "coordinates": {
      "lat": -54.839348,
      "lon": -68.31245
    }
  },
  {
    "name_translations": {
      "en": "Mara Lodges",
      "pl": "Mara Lodges"
    },
    "country_code": "KE",
    "code": "MRE",
    "time_zone": "Africa/Nairobi",
    "name": "Mara Lodges",
    "coordinates": {
      "lat": -1.300368,
      "lon": 35.05885
    }
  },
  {
    "name_translations": {
      "en": "Tamworth",
      "pl": "Tamworth"
    },
    "country_code": "AU",
    "code": "TMW",
    "time_zone": "Australia/Sydney",
    "name": "Tamworth",
    "coordinates": {
      "lat": -31.0845,
      "lon": 150.8485
    }
  },
  {
    "name_translations": {
      "en": "Charleston",
      "pl": "Charleston"
    },
    "country_code": "US",
    "code": "CRW",
    "time_zone": "America/New_York",
    "name": "Charleston",
    "coordinates": {
      "lat": 38.370342,
      "lon": -81.596504
    }
  },
  {
    "name_translations": {
      "en": "Tubuai",
      "pl": "Tubuai"
    },
    "country_code": "PF",
    "code": "TUB",
    "time_zone": "Pacific/Tahiti",
    "name": "Tubuai",
    "coordinates": {
      "lat": -23.35,
      "lon": -149.46666
    }
  },
  {
    "name_translations": {
      "en": "Kawthaung",
      "pl": "Kawthaung"
    },
    "country_code": "MM",
    "code": "KAW",
    "time_zone": "Asia/Rangoon",
    "name": "Kawthaung",
    "coordinates": {
      "lat": 10.05,
      "lon": 98.51667
    }
  },
  {
    "name_translations": {
      "en": "Obihiro",
      "pl": "Obihiro"
    },
    "country_code": "JP",
    "code": "OBO",
    "time_zone": "Asia/Tokyo",
    "name": "Obihiro",
    "coordinates": {
      "lat": 42.732002,
      "lon": 143.21243
    }
  },
  {
    "name_translations": {
      "en": "Madrid",
      "pl": "Madryt"
    },
    "country_code": "ES",
    "code": "MAD",
    "time_zone": "Europe/Madrid",
    "name": "Madrid",
    "coordinates": {
      "lat": 40.4166909,
      "lon": -3.7003454
    }
  },
  {
    "name_translations": {
      "en": "Chongqing",
      "pl": "Chongqing"
    },
    "country_code": "CN",
    "code": "CKG",
    "time_zone": "Asia/Shanghai",
    "name": "Chongqing",
    "coordinates": {
      "lat": 29.72034,
      "lon": 106.63408
    }
  },
  {
    "name_translations": {
      "en": "Vinnytsia",
      "pl": "Vinnytsia"
    },
    "country_code": "UA",
    "code": "VIN",
    "time_zone": "Europe/Kiev",
    "name": "Vinnytsia",
    "coordinates": {
      "lat": 49.233334,
      "lon": 28.483334
    }
  },
  {
    "name_translations": {
      "en": "Moron",
      "pl": "Maroni"
    },
    "country_code": "MN",
    "code": "MXV",
    "time_zone": "Asia/Ulaanbaatar",
    "name": "Moron",
    "coordinates": {
      "lat": 49.63333,
      "lon": 100.166664
    }
  },
  {
    "name_translations": {
      "en": "Charleston",
      "pl": "Charleston"
    },
    "country_code": "US",
    "code": "CHS",
    "time_zone": "America/New_York",
    "name": "Charleston",
    "coordinates": {
      "lat": 32.884354,
      "lon": -80.037155
    }
  },
  {
    "name_translations": {
      "en": "Kalamazoo",
      "pl": "Kalamazoo"
    },
    "country_code": "US",
    "code": "AZO",
    "time_zone": "America/Detroit",
    "name": "Kalamazoo",
    "coordinates": {
      "lat": 42.239964,
      "lon": -85.55656
    }
  },
  {
    "name_translations": {
      "en": "Wilkes-Barre",
      "pl": "Wilkes-Barre"
    },
    "country_code": "US",
    "code": "AVP",
    "time_zone": "America/New_York",
    "name": "Wilkes-Barre",
    "coordinates": {
      "lat": 41.2459149,
      "lon": -75.8813075
    }
  },
  {
    "name_translations": {
      "en": "Salerno",
      "pl": "Salerno"
    },
    "country_code": "IT",
    "code": "QSR",
    "time_zone": "Europe/Rome",
    "name": "Salerno",
    "coordinates": {
      "lat": 40.620148,
      "lon": 14.92084
    }
  },
  {
    "name_translations": {
      "en": "Balikpapan",
      "pl": "Balikpapan"
    },
    "country_code": "ID",
    "code": "BPN",
    "time_zone": "Asia/Makassar",
    "name": "Balikpapan",
    "coordinates": {
      "lat": -1.260623,
      "lon": 116.90082
    }
  },
  {
    "name_translations": {
      "en": "Taiyuan",
      "pl": "Taiyuan"
    },
    "country_code": "CN",
    "code": "TYN",
    "time_zone": "Asia/Shanghai",
    "name": "Taiyuan",
    "coordinates": {
      "lat": 37.754997,
      "lon": 112.62585
    }
  },
  {
    "name_translations": {
      "en": "Kursk",
      "pl": "Kursk"
    },
    "country_code": "RU",
    "code": "URS",
    "time_zone": "Europe/Moscow",
    "name": "Kursk",
    "coordinates": {
      "lat": 51.75,
      "lon": 36.266666
    }
  },
  {
    "name_translations": {
      "en": "Kearney",
      "pl": "Kearney"
    },
    "country_code": "US",
    "code": "EAR",
    "time_zone": "America/Chicago",
    "name": "Kearney",
    "coordinates": {
      "lat": 40.728333,
      "lon": -98.998886
    }
  },
  {
    "name_translations": {
      "en": "Cartagena",
      "pl": "Cartagena"
    },
    "country_code": "CO",
    "code": "CTG",
    "time_zone": "America/Bogota",
    "name": "Cartagena",
    "coordinates": {
      "lat": 10.445704,
      "lon": -75.51659
    }
  },
  {
    "name_translations": {
      "en": "Boise",
      "pl": "Boise"
    },
    "country_code": "US",
    "code": "BOI",
    "time_zone": "America/Boise",
    "name": "Boise",
    "coordinates": {
      "lat": 43.569263,
      "lon": -116.22193
    }
  },
  {
    "name_translations": {
      "en": "Jacksonville",
      "pl": "Jacksonville"
    },
    "country_code": "US",
    "code": "JAX",
    "time_zone": "America/New_York",
    "name": "Jacksonville",
    "coordinates": {
      "lat": 30.3321838,
      "lon": -81.655651
    }
  },
  {
    "name_translations": {
      "en": "Cheboksary",
      "pl": "Cheboksary"
    },
    "country_code": "RU",
    "code": "CSY",
    "time_zone": "Europe/Moscow",
    "name": "Cheboksary",
    "coordinates": {
      "lat": 56.13333,
      "lon": 47.266666
    }
  },
  {
    "name_translations": {
      "en": "Rosario",
      "pl": "Rosario"
    },
    "country_code": "AR",
    "code": "ROS",
    "time_zone": "America/Argentina/Cordoba",
    "name": "Rosario",
    "coordinates": {
      "lat": -32.933334,
      "lon": -60.783333
    }
  },
  {
    "name_translations": {
      "en": "Shetland Islands",
      "pl": "Szetlandy"
    },
    "country_code": "GB",
    "code": "SDZ",
    "time_zone": "Europe/London",
    "name": "Shetland Islands",
    "coordinates": {
      "lat": 60.3441603,
      "lon": -1.2564252
    }
  },
  {
    "name_translations": {
      "en": "Nabire",
      "pl": "Nabire"
    },
    "country_code": "ID",
    "code": "NBX",
    "time_zone": "Asia/Jayapura",
    "name": "Nabire",
    "coordinates": {
      "lat": -3.366667,
      "lon": 135.43333
    }
  },
  {
    "name_translations": {
      "en": "Agartala",
      "pl": "Agartala"
    },
    "country_code": "IN",
    "code": "IXA",
    "time_zone": "Asia/Kolkata",
    "name": "Agartala",
    "coordinates": {
      "lat": 23.8926,
      "lon": 91.244514
    }
  },
  {
    "name_translations": {
      "en": "Gdansk",
      "pl": "Gdańsk"
    },
    "country_code": "PL",
    "code": "GDN",
    "time_zone": "Europe/Warsaw",
    "name": "Gdansk",
    "coordinates": {
      "lat": 54.380978,
      "lon": 18.468655
    }
  },
  {
    "name_translations": {
      "en": "Queretaro",
      "pl": "Queretaro"
    },
    "country_code": "MX",
    "code": "QRO",
    "time_zone": "America/Mexico_City",
    "name": "Queretaro",
    "coordinates": {
      "lat": 20.6,
      "lon": -100.38333
    }
  },
  {
    "name_translations": {
      "en": "Prince Albert",
      "pl": "Prince Albert"
    },
    "country_code": "CA",
    "code": "YPA",
    "time_zone": "America/Regina",
    "name": "Prince Albert",
    "coordinates": {
      "lat": 53.216667,
      "lon": -105.683334
    }
  },
  {
    "name_translations": {
      "en": "Tan Tan",
      "pl": "Tan Tan"
    },
    "country_code": "MA",
    "code": "TTA",
    "time_zone": "Africa/Casablanca",
    "name": "Tan Tan",
    "coordinates": {
      "lat": 28.45,
      "lon": -11.083333
    }
  },
  {
    "name_translations": {
      "en": "Paramaribo",
      "pl": "Paramaribo"
    },
    "country_code": "SR",
    "code": "PBM",
    "time_zone": "America/Paramaribo",
    "name": "Paramaribo",
    "coordinates": {
      "lat": 5.823201,
      "lon": -55.16788
    }
  },
  {
    "name_translations": {
      "en": "Dakar",
      "pl": "Dakar"
    },
    "country_code": "SN",
    "code": "DKR",
    "time_zone": "Africa/Dakar",
    "name": "Dakar",
    "coordinates": {
      "lat": 14.744975,
      "lon": -17.490194
    }
  },
  {
    "name_translations": {
      "en": "Labasa",
      "pl": "Labasa"
    },
    "country_code": "FJ",
    "code": "LBS",
    "time_zone": "Pacific/Fiji",
    "name": "Labasa",
    "coordinates": {
      "lat": -16.466215,
      "lon": 179.33766
    }
  },
  {
    "name_translations": {
      "en": "Kristiansand",
      "pl": "Kristiansand"
    },
    "country_code": "NO",
    "code": "KRS",
    "time_zone": "Europe/Oslo",
    "name": "Kristiansand",
    "coordinates": {
      "lat": 58.15,
      "lon": 7.99
    }
  },
  {
    "name_translations": {
      "en": "Xining",
      "pl": "Xining"
    },
    "country_code": "CN",
    "code": "XNN",
    "time_zone": "Asia/Shanghai",
    "name": "Xining",
    "coordinates": {
      "lat": 36.525322,
      "lon": 102.03754
    }
  },
  {
    "name_translations": {
      "en": "Beirut",
      "pl": "Bejrut"
    },
    "country_code": "LB",
    "code": "BEY",
    "time_zone": "Asia/Beirut",
    "name": "Beirut",
    "coordinates": {
      "lat": 33.826073,
      "lon": 35.49308
    }
  },
  {
    "name_translations": {
      "en": "Port Au Prince",
      "pl": "Port Au Prince"
    },
    "country_code": "HT",
    "code": "PAP",
    "time_zone": "America/Port-au-Prince",
    "name": "Port Au Prince",
    "coordinates": {
      "lat": 18.575394,
      "lon": -72.29471
    }
  },
  {
    "name_translations": {
      "en": "Gurayat",
      "pl": "Gurayat"
    },
    "country_code": "SA",
    "code": "URY",
    "time_zone": "Asia/Riyadh",
    "name": "Gurayat",
    "coordinates": {
      "lat": 31.409622,
      "lon": 37.275005
    }
  },
  {
    "name_translations": {
      "en": "Nanded",
      "pl": "Nanded"
    },
    "country_code": "IN",
    "code": "NDC",
    "time_zone": "Asia/Kolkata",
    "name": "Nanded",
    "coordinates": {
      "lat": 19.183332,
      "lon": 77.316666
    }
  },
  {
    "name_translations": {
      "en": "Formosa",
      "pl": "Formosa"
    },
    "country_code": "AR",
    "code": "FMA",
    "time_zone": "America/Argentina/Cordoba",
    "name": "Formosa",
    "coordinates": {
      "lat": -26.212778,
      "lon": -58.235
    }
  },
  {
    "name_translations": {
      "en": "Elko",
      "pl": "Elko, NV"
    },
    "country_code": "US",
    "code": "EKO",
    "time_zone": "America/Los_Angeles",
    "name": "Elko",
    "coordinates": {
      "lat": 40.82389,
      "lon": -115.78972
    }
  },
  {
    "name_translations": {
      "en": "Philadelphia",
      "pl": "Filadelfia"
    },
    "country_code": "US",
    "code": "PHL",
    "time_zone": "America/New_York",
    "name": "Philadelphia",
    "coordinates": {
      "lat": 39.952335,
      "lon": -75.163789
    }
  },
  {
    "name_translations": {
      "en": "Zagreb",
      "pl": "Zagrzeb"
    },
    "country_code": "HR",
    "code": "ZAG",
    "time_zone": "Europe/Zagreb",
    "name": "Zagreb",
    "coordinates": {
      "lat": 45.733242,
      "lon": 16.06152
    }
  },
  {
    "name_translations": {
      "en": "Shymkent",
      "pl": "Shimkent"
    },
    "country_code": "KZ",
    "code": "CIT",
    "time_zone": "Asia/Almaty",
    "name": "Shymkent",
    "coordinates": {
      "lat": 42.3,
      "lon": 69.6
    }
  },
  {
    "name_translations": {
      "en": "Floro",
      "pl": "Floro"
    },
    "country_code": "NO",
    "code": "FRO",
    "time_zone": "Europe/Oslo",
    "name": "Floro",
    "coordinates": {
      "lat": 61.58643,
      "lon": 5.024577
    }
  },
  {
    "name_translations": {
      "en": "Fitzroy Crossing",
      "pl": "Fitzroy Crossing"
    },
    "country_code": "AU",
    "code": "FIZ",
    "time_zone": "Australia/Perth",
    "name": "Fitzroy Crossing",
    "coordinates": {
      "lat": -18.178333,
      "lon": 125.55417
    }
  },
  {
    "name_translations": {
      "en": "Asosa",
      "pl": "Asosa"
    },
    "country_code": "ET",
    "code": "ASO",
    "time_zone": "Africa/Addis_Ababa",
    "name": "Asosa",
    "coordinates": {
      "lat": 10.047222,
      "lon": 34.536667
    }
  },
  {
    "name_translations": {
      "en": "Atlanta",
      "pl": "Atlanta"
    },
    "country_code": "US",
    "code": "ATL",
    "time_zone": "America/New_York",
    "name": "Atlanta",
    "coordinates": {
      "lat": 33.7489954,
      "lon": -84.3879824
    }
  },
  {
    "name_translations": {
      "en": "Mitu",
      "pl": "Mitu"
    },
    "country_code": "CO",
    "code": "MVP",
    "time_zone": "America/Bogota",
    "name": "Mitu",
    "coordinates": {
      "lat": 1.133333,
      "lon": -70.05
    }
  },
  {
    "name_translations": {
      "en": "Amritsar",
      "pl": "Amritsar"
    },
    "country_code": "IN",
    "code": "ATQ",
    "time_zone": "Asia/Kolkata",
    "name": "Amritsar",
    "coordinates": {
      "lat": 31.706741,
      "lon": 74.8073
    }
  },
  {
    "name_translations": {
      "en": "Shirdi",
      "pl": "Shirdi"
    },
    "country_code": "IN",
    "code": "SAG",
    "time_zone": "Asia/Colombo",
    "name": "Shirdi",
    "coordinates": {
      "lat": 19.77,
      "lon": 74.48
    }
  },
  {
    "name_translations": {
      "en": "Grand Cayman Island",
      "pl": "Grand Cayman Island"
    },
    "country_code": "KY",
    "code": "GCM",
    "time_zone": "America/Cayman",
    "name": "Grand Cayman Island",
    "coordinates": {
      "lat": 19.29637,
      "lon": -81.35779
    }
  },
  {
    "name_translations": {
      "en": "Medford",
      "pl": "Medford"
    },
    "country_code": "US",
    "code": "MFR",
    "time_zone": "America/Los_Angeles",
    "name": "Medford",
    "coordinates": {
      "lat": 42.369026,
      "lon": -122.87312
    }
  },
  {
    "name_translations": {
      "en": "Gaziantep",
      "pl": "Gaziantep"
    },
    "country_code": "TR",
    "code": "GZT",
    "time_zone": "Europe/Istanbul",
    "name": "Gaziantep",
    "coordinates": {
      "lat": 36.944935,
      "lon": 37.473747
    }
  },
  {
    "name_translations": {
      "en": "Coventry",
      "pl": "Coventry"
    },
    "country_code": "GB",
    "code": "CVT",
    "time_zone": "Europe/London",
    "name": "Coventry",
    "coordinates": {
      "lat": 52.369167,
      "lon": -1.478611
    }
  },
  {
    "name_translations": {
      "en": "Belfast",
      "pl": "Belfast"
    },
    "country_code": "GB",
    "code": "BFS",
    "time_zone": "Europe/London",
    "name": "Belfast",
    "coordinates": {
      "lat": 54.5972686,
      "lon": -5.9301088
    }
  },
  {
    "name_translations": {
      "en": "Comox",
      "pl": "Comox"
    },
    "country_code": "CA",
    "code": "YQQ",
    "time_zone": "America/Vancouver",
    "name": "Comox",
    "coordinates": {
      "lat": 49.705864,
      "lon": -124.907814
    }
  },
  {
    "name_translations": {
      "en": "Winton",
      "pl": "Winton"
    },
    "country_code": "AU",
    "code": "WIN",
    "time_zone": "Australia/Brisbane",
    "name": "Winton",
    "coordinates": {
      "lat": -22.35,
      "lon": 143.06667
    }
  },
  {
    "name_translations": {
      "en": "Oita",
      "pl": "Oita"
    },
    "country_code": "JP",
    "code": "OIT",
    "time_zone": "Asia/Tokyo",
    "name": "Oita",
    "coordinates": {
      "lat": 33.477238,
      "lon": 131.73236
    }
  },
  {
    "name_translations": {
      "en": "Varna",
      "pl": "Warna"
    },
    "country_code": "BG",
    "code": "VAR",
    "time_zone": "Europe/Sofia",
    "name": "Varna",
    "coordinates": {
      "lat": 43.23726,
      "lon": 27.829096
    }
  },
  {
    "name_translations": {
      "en": "Panama City",
      "pl": "Panama City"
    },
    "country_code": "US",
    "code": "ECP",
    "time_zone": "America/Chicago",
    "name": "Panama City",
    "coordinates": {
      "lat": 30.1588129,
      "lon": -85.6602058
    }
  },
  {
    "name_translations": {
      "en": "Gondar",
      "pl": "Gondar"
    },
    "country_code": "ET",
    "code": "GDQ",
    "time_zone": "Africa/Addis_Ababa",
    "name": "Gondar",
    "coordinates": {
      "lat": 12.514444,
      "lon": 37.445557
    }
  },
  {
    "name_translations": {
      "en": "Bahia Solano",
      "pl": "Bahia Solano"
    },
    "country_code": "CO",
    "code": "BSC",
    "time_zone": "America/Bogota",
    "name": "Bahia Solano",
    "coordinates": {
      "lat": 6.183333,
      "lon": -77.4
    }
  },
  {
    "name_translations": {
      "en": "Guapi",
      "pl": "Guapi"
    },
    "country_code": "CO",
    "code": "GPI",
    "time_zone": "America/Bogota",
    "name": "Guapi",
    "coordinates": {
      "lat": 2.5,
      "lon": -78.34167
    }
  },
  {
    "name_translations": {
      "en": "Malabo",
      "pl": "Malabo"
    },
    "country_code": "GQ",
    "code": "SSG",
    "time_zone": "Africa/Malabo",
    "name": "Malabo",
    "coordinates": {
      "lat": 3.757791,
      "lon": 8.716096
    }
  },
  {
    "name_translations": {
      "en": "Knock",
      "pl": "Knock"
    },
    "country_code": "IE",
    "code": "NOC",
    "time_zone": "Europe/Dublin",
    "name": "Knock",
    "coordinates": {
      "lat": 53.914,
      "lon": -8.810468
    }
  },
  {
    "name_translations": {
      "en": "Dawadmi",
      "pl": "Dawadmi"
    },
    "country_code": "SA",
    "code": "DWD",
    "time_zone": "Asia/Riyadh",
    "name": "Dawadmi",
    "coordinates": {
      "lat": 24.445545,
      "lon": 44.1287
    }
  },
  {
    "name_translations": {
      "en": "Cruzeiro Do Sul",
      "pl": "Cruzeiro Do Sul"
    },
    "country_code": "BR",
    "code": "CZS",
    "time_zone": "America/Rio_Branco",
    "name": "Cruzeiro Do Sul",
    "coordinates": {
      "lat": -7.583333,
      "lon": -72.78333
    }
  },
  {
    "name_translations": {
      "en": "Long Beach",
      "pl": "Long Beach"
    },
    "country_code": "US",
    "code": "LGB",
    "time_zone": "America/Los_Angeles",
    "name": "Long Beach",
    "coordinates": {
      "lat": 33.79,
      "lon": -118.16
    }
  },
  {
    "name_translations": {
      "en": "Arusha",
      "pl": "Arusha"
    },
    "country_code": "TZ",
    "code": "ARK",
    "time_zone": "Africa/Dar_es_Salaam",
    "name": "Arusha",
    "coordinates": {
      "lat": -3.366667,
      "lon": 36.683334
    }
  },
  {
    "name_translations": {
      "en": "Korla",
      "pl": "Korla"
    },
    "country_code": "CN",
    "code": "KRL",
    "time_zone": "Asia/Shanghai",
    "name": "Korla",
    "coordinates": {
      "lat": 41.689896,
      "lon": 86.12434
    }
  },
  {
    "name_translations": {
      "en": "Dhaka",
      "pl": "Dhaka"
    },
    "country_code": "BD",
    "code": "DAC",
    "time_zone": "Asia/Dhaka",
    "name": "Dhaka",
    "coordinates": {
      "lat": 23.848648,
      "lon": 90.405876
    }
  },
  {
    "name_translations": {
      "en": "Podgorica",
      "pl": "Podgorica"
    },
    "country_code": "ME",
    "code": "TGD",
    "time_zone": "Europe/Podgorica",
    "name": "Podgorica",
    "coordinates": {
      "lat": 42.368023,
      "lon": 19.246023
    }
  },
  {
    "name_translations": {
      "en": "Daegu",
      "pl": "Taegu"
    },
    "country_code": "KR",
    "code": "TAE",
    "time_zone": "Asia/Seoul",
    "name": "Daegu",
    "coordinates": {
      "lat": 35.899254,
      "lon": 128.63788
    }
  },
  {
    "name_translations": {
      "en": "Calgary",
      "pl": "Calgary"
    },
    "country_code": "CA",
    "code": "YYC",
    "time_zone": "America/Edmonton",
    "name": "Calgary",
    "coordinates": {
      "lat": 51.131393,
      "lon": -114.01055
    }
  },
  {
    "name_translations": {
      "en": "Qui Nhon",
      "pl": "Qui Nhon"
    },
    "country_code": "VN",
    "code": "UIH",
    "time_zone": "Asia/Ho_Chi_Minh",
    "name": "Qui Nhon",
    "coordinates": {
      "lat": 13.766111,
      "lon": 109.22639
    }
  },
  {
    "name_translations": {
      "en": "Oujda",
      "pl": "Oujda"
    },
    "country_code": "MA",
    "code": "OUD",
    "time_zone": "Africa/Casablanca",
    "name": "Oujda",
    "coordinates": {
      "lat": 34.783333,
      "lon": -1.933333
    }
  },
  {
    "name_translations": {
      "en": "Iguassu Falls",
      "pl": "Iguassu Falls"
    },
    "country_code": "BR",
    "code": "IGU",
    "time_zone": "America/Sao_Paulo",
    "name": "Iguassu Falls",
    "coordinates": {
      "lat": -25.597937,
      "lon": -54.488823
    }
  },
  {
    "name_translations": {
      "en": "Valdosta",
      "pl": "Valdosta"
    },
    "country_code": "US",
    "code": "VLD",
    "time_zone": "America/New_York",
    "name": "Valdosta",
    "coordinates": {
      "lat": 30.8327022,
      "lon": -83.2784851
    }
  },
  {
    "name_translations": {
      "en": "Qingyang",
      "pl": "Qingyang"
    },
    "country_code": "CN",
    "code": "IQN",
    "time_zone": "Asia/Shanghai",
    "name": "Qingyang",
    "coordinates": {
      "lat": 35.8001,
      "lon": 107.6044
    }
  },
  {
    "name_translations": {
      "en": "Santa Rosa",
      "pl": "Santa Rosa"
    },
    "country_code": "US",
    "code": "STS",
    "time_zone": "America/Los_Angeles",
    "name": "Santa Rosa",
    "coordinates": {
      "lat": 38.50889,
      "lon": -122.81167
    }
  },
  {
    "name_translations": {
      "en": "Tetuan",
      "pl": "Tetuan"
    },
    "country_code": "MA",
    "code": "TTU",
    "time_zone": "Africa/Casablanca",
    "name": "Tetuan",
    "coordinates": {
      "lat": 35.583332,
      "lon": -5.316667
    }
  },
  {
    "name_translations": {
      "en": "Guadalajara",
      "pl": "Guadalajara"
    },
    "country_code": "MX",
    "code": "GDL",
    "time_zone": "America/Mexico_City",
    "name": "Guadalajara",
    "coordinates": {
      "lat": 20.525198,
      "lon": -103.29921
    }
  },
  {
    "name_translations": {
      "en": "Parkersburg",
      "pl": "Pakersburg"
    },
    "country_code": "US",
    "code": "PKB",
    "time_zone": "America/New_York",
    "name": "Parkersburg",
    "coordinates": {
      "lat": 39.345554,
      "lon": -81.43889
    }
  },
  {
    "name_translations": {
      "en": "Kosrae, Caroline Islands",
      "pl": "Kosrae"
    },
    "country_code": "FM",
    "code": "KSA",
    "time_zone": "Pacific/Kosrae",
    "name": "Kosrae, Caroline Islands",
    "coordinates": {
      "lat": 5.352478,
      "lon": 162.9566
    }
  },
  {
    "name_translations": {
      "en": "Ghardaia",
      "pl": "Ghardaia"
    },
    "country_code": "DZ",
    "code": "GHA",
    "time_zone": "Africa/Algiers",
    "name": "Ghardaia",
    "coordinates": {
      "lat": 32.38222,
      "lon": 3.800556
    }
  },
  {
    "name_translations": {
      "en": "Manzanillo",
      "pl": "Manzanillo"
    },
    "country_code": "CU",
    "code": "MZO",
    "time_zone": "America/Havana",
    "name": "Manzanillo",
    "coordinates": {
      "lat": 20.325,
      "lon": -77.12889
    }
  },
  {
    "name_translations": {
      "en": "Paraparaumu",
      "pl": "Paraparaumu"
    },
    "country_code": "NZ",
    "code": "PPQ",
    "time_zone": "Pacific/Auckland",
    "name": "Paraparaumu",
    "coordinates": {
      "lat": -40.9,
      "lon": 174.98334
    }
  },
  {
    "name_translations": {
      "en": "Padang",
      "pl": "Padang"
    },
    "country_code": "ID",
    "code": "PDG",
    "time_zone": "Asia/Jakarta",
    "name": "Padang",
    "coordinates": {
      "lat": -0.786667,
      "lon": 100.280556
    }
  },
  {
    "name_translations": {
      "en": "Mae Sot",
      "pl": "Mae Sot"
    },
    "country_code": "TH",
    "code": "MAQ",
    "time_zone": "Asia/Bangkok",
    "name": "Mae Sot",
    "coordinates": {
      "lat": 16.666668,
      "lon": 98.583336
    }
  },
  {
    "name_translations": {
      "en": "Tarawa",
      "pl": "Tarawa Islands"
    },
    "country_code": "KI",
    "code": "TRW",
    "time_zone": "Pacific/Tarawa",
    "name": "Tarawa",
    "coordinates": {
      "lat": 1.358333,
      "lon": 172.94167
    }
  },
  {
    "name_translations": {
      "en": "Melilla",
      "pl": "Melilla"
    },
    "country_code": "ES",
    "code": "MLN",
    "time_zone": "Africa/Ceuta",
    "name": "Melilla",
    "coordinates": {
      "lat": 35.277077,
      "lon": -2.957473
    }
  },
  {
    "name_translations": {
      "en": "Tapachula",
      "pl": "Tapachula"
    },
    "country_code": "MX",
    "code": "TAP",
    "time_zone": "America/Mexico_City",
    "name": "Tapachula",
    "coordinates": {
      "lat": 14.909722,
      "lon": -92.25306
    }
  },
  {
    "name_translations": {
      "en": "Anvik",
      "pl": "Anvik"
    },
    "country_code": "US",
    "code": "ANV",
    "time_zone": "America/Anchorage",
    "name": "Anvik",
    "coordinates": {
      "lat": 62.647778,
      "lon": -160.18889
    }
  },
  {
    "name_translations": {
      "en": "Krasnojarsk",
      "pl": "Krasnojarsk"
    },
    "country_code": "RU",
    "code": "KJA",
    "time_zone": "Asia/Krasnoyarsk",
    "name": "Krasnojarsk",
    "coordinates": {
      "lat": 56.18113,
      "lon": 92.48286
    }
  },
  {
    "name_translations": {
      "en": "Sanyuanpu",
      "pl": "Tonghua"
    },
    "country_code": "CN",
    "code": "TNH",
    "time_zone": "Asia/Shanghai",
    "name": "Sanyuanpu",
    "coordinates": {
      "lat": 41.75,
      "lon": 125.95
    }
  },
  {
    "name_translations": {
      "en": "Tirana",
      "pl": "Tirana"
    },
    "country_code": "AL",
    "code": "TIA",
    "time_zone": "Europe/Tirane",
    "name": "Tirana",
    "coordinates": {
      "lat": 41.419132,
      "lon": 19.71328
    }
  },
  {
    "name_translations": {
      "en": "Fakarava",
      "pl": "Fakarava"
    },
    "country_code": "PF",
    "code": "FAV",
    "time_zone": "Pacific/Tahiti",
    "name": "Fakarava",
    "coordinates": {
      "lat": -16.053486,
      "lon": -145.65225
    }
  },
  {
    "name_translations": {
      "en": "Bejaia",
      "pl": "Bejaia"
    },
    "country_code": "DZ",
    "code": "BJA",
    "time_zone": "Africa/Algiers",
    "name": "Bejaia",
    "coordinates": {
      "lat": 36.75,
      "lon": 5.083333
    }
  },
  {
    "name_translations": {
      "en": "Erfurt",
      "pl": "Erfurt"
    },
    "country_code": "DE",
    "code": "ERF",
    "time_zone": "Europe/Berlin",
    "name": "Erfurt",
    "coordinates": {
      "lat": 50.9737341,
      "lon": 11.0224351
    }
  },
  {
    "name_translations": {
      "en": "Saginaw",
      "pl": "Saginaw"
    },
    "country_code": "US",
    "code": "MBS",
    "time_zone": "America/Detroit",
    "name": "Saginaw",
    "coordinates": {
      "lat": 43.53339,
      "lon": -84.090744
    }
  },
  {
    "name_translations": {
      "en": "Sambava",
      "pl": "Sambava"
    },
    "country_code": "MG",
    "code": "SVB",
    "time_zone": "Indian/Antananarivo",
    "name": "Sambava",
    "coordinates": {
      "lat": -14.276944,
      "lon": 50.175
    }
  },
  {
    "name_translations": {
      "en": "Albany",
      "pl": "Albany"
    },
    "country_code": "US",
    "code": "ALB",
    "time_zone": "America/New_York",
    "name": "Albany",
    "coordinates": {
      "lat": 42.6525793,
      "lon": -73.7562317
    }
  },
  {
    "name_translations": {
      "en": "Florence",
      "pl": "Florencja"
    },
    "country_code": "IT",
    "code": "FLR",
    "time_zone": "Europe/Rome",
    "name": "Florence",
    "coordinates": {
      "lat": 43.7687324,
      "lon": 11.2569013
    }
  },
  {
    "name_translations": {
      "en": "Pantnagar",
      "pl": "Pantnagar"
    },
    "country_code": "IN",
    "code": "PGH",
    "time_zone": "Asia/Kolkata",
    "name": "Pantnagar",
    "coordinates": {
      "lat": 29.031944,
      "lon": 79.47361
    }
  },
  {
    "name_translations": {
      "en": "Poprad/Tatry",
      "pl": "Poprad"
    },
    "country_code": "SK",
    "code": "TAT",
    "time_zone": "Europe/Bratislava",
    "name": "Poprad/Tatry",
    "coordinates": {
      "lat": 49.071945,
      "lon": 20.240278
    }
  },
  {
    "name_translations": {
      "en": "Osaka",
      "pl": "Osaka"
    },
    "country_code": "JP",
    "code": "OSA",
    "time_zone": "Asia/Tokyo",
    "name": "Osaka",
    "coordinates": {
      "lat": 34.6937378,
      "lon": 135.5021651
    }
  },
  {
    "name_translations": {
      "en": "North Platte",
      "pl": "North Platte"
    },
    "country_code": "US",
    "code": "LBF",
    "time_zone": "America/Chicago",
    "name": "North Platte",
    "coordinates": {
      "lat": 41.128334,
      "lon": -100.69667
    }
  },
  {
    "name_translations": {
      "en": "Glasgow",
      "pl": "Glasgow"
    },
    "country_code": "US",
    "code": "GGW",
    "time_zone": "America/Denver",
    "name": "Glasgow",
    "coordinates": {
      "lat": 48.212776,
      "lon": -106.615555
    }
  },
  {
    "name_translations": {
      "en": "Vail",
      "pl": "Vail"
    },
    "country_code": "US",
    "code": "EGE",
    "time_zone": "America/Denver",
    "name": "Vail",
    "coordinates": {
      "lat": 39.6402638,
      "lon": -106.3741955
    }
  },
  {
    "name_translations": {
      "en": "Blagoveschensk",
      "pl": "Blagoveschensk"
    },
    "country_code": "RU",
    "code": "BQS",
    "time_zone": "Asia/Yakutsk",
    "name": "Blagoveschensk",
    "coordinates": {
      "lat": 50.416668,
      "lon": 127.4
    }
  },
  {
    "name_translations": {
      "en": "Tanna",
      "pl": "Tanna"
    },
    "country_code": "VU",
    "code": "TAH",
    "time_zone": "Pacific/Efate",
    "name": "Tanna",
    "coordinates": {
      "lat": -19.458445,
      "lon": 169.22821
    }
  },
  {
    "name_translations": {
      "en": "Altoona",
      "pl": "Martinsburg"
    },
    "country_code": "US",
    "code": "AOO",
    "time_zone": "America/New_York",
    "name": "Altoona",
    "coordinates": {
      "lat": 40.297222,
      "lon": -78.32
    }
  },
  {
    "name_translations": {
      "en": "Tucurui",
      "pl": "Tucurui"
    },
    "country_code": "BR",
    "code": "TUR",
    "time_zone": "America/Belem",
    "name": "Tucurui",
    "coordinates": {
      "lat": -3.7,
      "lon": -49.733334
    }
  },
  {
    "name_translations": {
      "en": "Ranchi",
      "pl": "Ranchi"
    },
    "country_code": "IN",
    "code": "IXR",
    "time_zone": "Asia/Kolkata",
    "name": "Ranchi",
    "coordinates": {
      "lat": 23.318192,
      "lon": 85.32285
    }
  },
  {
    "name_translations": {
      "en": "Akron",
      "pl": "Akron"
    },
    "country_code": "US",
    "code": "CAK",
    "time_zone": "America/New_York",
    "name": "Akron",
    "coordinates": {
      "lat": 40.914963,
      "lon": -81.43583
    }
  },
  {
    "name_translations": {
      "en": "Rennes",
      "pl": "Rennes"
    },
    "country_code": "FR",
    "code": "RNS",
    "time_zone": "Europe/Paris",
    "name": "Rennes",
    "coordinates": {
      "lat": 48.113475,
      "lon": -1.675708
    }
  },
  {
    "name_translations": {
      "en": "Hailar",
      "pl": "Hailar"
    },
    "country_code": "CN",
    "code": "HLD",
    "time_zone": "Asia/Shanghai",
    "name": "Hailar",
    "coordinates": {
      "lat": 49.209873,
      "lon": 119.80654
    }
  },
  {
    "name_translations": {
      "en": "Manta",
      "pl": "Manta"
    },
    "country_code": "EC",
    "code": "MEC",
    "time_zone": "America/Guayaquil",
    "name": "Manta",
    "coordinates": {
      "lat": -0.953035,
      "lon": -80.684
    }
  },
  {
    "name_translations": {
      "en": "Bocas Del Toro",
      "pl": "Bocas del Toro"
    },
    "country_code": "PA",
    "code": "BOC",
    "time_zone": "America/Panama",
    "name": "Bocas Del Toro",
    "coordinates": {
      "lat": 9.34,
      "lon": -82.251945
    }
  },
  {
    "name_translations": {
      "en": "Ishigaki",
      "pl": "Ishigaki"
    },
    "country_code": "JP",
    "code": "ISG",
    "time_zone": "Asia/Tokyo",
    "name": "Ishigaki",
    "coordinates": {
      "lat": 24.336945,
      "lon": 124.16889
    }
  },
  {
    "name_translations": {
      "en": "Tegucigalpa",
      "pl": "Tegucigalpa"
    },
    "country_code": "HN",
    "code": "TGU",
    "time_zone": "America/Tegucigalpa",
    "name": "Tegucigalpa",
    "coordinates": {
      "lat": 14.060123,
      "lon": -87.21972
    }
  },
  {
    "name_translations": {
      "en": "Hamilton Island",
      "pl": "Hamilton Island"
    },
    "country_code": "AU",
    "code": "HTI",
    "time_zone": "Australia/Lindeman",
    "name": "Hamilton Island",
    "coordinates": {
      "lat": -20.35175,
      "lon": 148.94847
    }
  },
  {
    "name_translations": {
      "en": "Yeosu",
      "pl": "Yosu"
    },
    "country_code": "KR",
    "code": "RSU",
    "time_zone": "Asia/Seoul",
    "name": "Yeosu",
    "coordinates": {
      "lat": 34.8419,
      "lon": 127.61267
    }
  },
  {
    "name_translations": {
      "en": "Rio Branco",
      "pl": "Rio Branco"
    },
    "country_code": "BR",
    "code": "RBR",
    "time_zone": "America/Rio_Branco",
    "name": "Rio Branco",
    "coordinates": {
      "lat": -9.966667,
      "lon": -67.8
    }
  },
  {
    "name_translations": {
      "en": "Jijel",
      "pl": "Jijel"
    },
    "country_code": "DZ",
    "code": "GJL",
    "time_zone": "Africa/Algiers",
    "name": "Jijel",
    "coordinates": {
      "lat": 36.8,
      "lon": 5.883333
    }
  },
  {
    "name_translations": {
      "en": "Cayo Coco",
      "pl": "Cayo Coco"
    },
    "country_code": "CU",
    "code": "CCC",
    "time_zone": "America/Havana",
    "name": "Cayo Coco",
    "coordinates": {
      "lat": 22.5125,
      "lon": -78.50833
    }
  },
  {
    "name_translations": {
      "en": "George Town",
      "pl": "George Town"
    },
    "country_code": "BS",
    "code": "GGT",
    "time_zone": "America/Nassau",
    "name": "George Town",
    "coordinates": {
      "lat": 23.564018,
      "lon": -75.872475
    }
  },
  {
    "name_translations": {
      "en": "Banjarmasin",
      "pl": "Banjarmasin"
    },
    "country_code": "ID",
    "code": "BDJ",
    "time_zone": "Asia/Makassar",
    "name": "Banjarmasin",
    "coordinates": {
      "lat": -3.43804,
      "lon": 114.75425
    }
  },
  {
    "name_translations": {
      "en": "Brasilia",
      "pl": "Brasilia"
    },
    "country_code": "BR",
    "code": "BSB",
    "time_zone": "America/Sao_Paulo",
    "name": "Brasilia",
    "coordinates": {
      "lat": -15.869807,
      "lon": -47.921486
    }
  },
  {
    "name_translations": {
      "en": "Crescent City",
      "pl": "Crescent City"
    },
    "country_code": "US",
    "code": "CEC",
    "time_zone": "America/Los_Angeles",
    "name": "Crescent City",
    "coordinates": {
      "lat": 41.78,
      "lon": -124.23583
    }
  },
  {
    "name_translations": {
      "en": "David",
      "pl": "David"
    },
    "country_code": "PA",
    "code": "DAV",
    "time_zone": "America/Panama",
    "name": "David",
    "coordinates": {
      "lat": 8.383333,
      "lon": -82.433334
    }
  },
  {
    "name_translations": {
      "en": "Aurangabad",
      "pl": "Aurangabad"
    },
    "country_code": "IN",
    "code": "IXU",
    "time_zone": "Asia/Kolkata",
    "name": "Aurangabad",
    "coordinates": {
      "lat": 19.866465,
      "lon": 75.39721
    }
  },
  {
    "name_translations": {
      "en": "Siem Reap",
      "pl": "Siem Reap"
    },
    "country_code": "KH",
    "code": "SAI",
    "time_zone": "Asia/Phnom_Penh",
    "name": "Siem Reap",
    "coordinates": {
      "lat": 13.408436,
      "lon": 103.81593
    }
  },
  {
    "name_translations": {
      "en": "Franklin",
      "pl": "Franklin"
    },
    "country_code": "US",
    "code": "FKL",
    "time_zone": "America/New_York",
    "name": "Franklin",
    "coordinates": {
      "lat": 41.379166,
      "lon": -79.85972
    }
  },
  {
    "name_translations": {
      "en": "Sary",
      "pl": "Sary"
    },
    "country_code": "IR",
    "code": "SRY",
    "time_zone": "Asia/Tehran",
    "name": "Sary",
    "coordinates": {
      "lat": 36.635727,
      "lon": 53.197277
    }
  },
  {
    "name_translations": {
      "en": "Longview",
      "pl": "Longview"
    },
    "country_code": "US",
    "code": "GGG",
    "time_zone": "America/Chicago",
    "name": "Longview",
    "coordinates": {
      "lat": 32.386665,
      "lon": -94.71528
    }
  },
  {
    "name_translations": {
      "en": "Belo Horizonte",
      "pl": "Belo Horizonte"
    },
    "country_code": "BR",
    "code": "BHZ",
    "time_zone": "America/Sao_Paulo",
    "name": "Belo Horizonte",
    "coordinates": {
      "lat": -19.9190677,
      "lon": -43.9385747
    }
  },
  {
    "name_translations": {
      "en": "Guyuan",
      "pl": "Guyuan"
    },
    "country_code": "CN",
    "code": "GYU",
    "time_zone": "Asia/Shanghai",
    "name": "Guyuan",
    "coordinates": {
      "lat": 36.0158,
      "lon": 106.2426
    }
  },
  {
    "name_translations": {
      "en": "Tarakan",
      "pl": "Tarakan"
    },
    "country_code": "ID",
    "code": "TRK",
    "time_zone": "Asia/Makassar",
    "name": "Tarakan",
    "coordinates": {
      "lat": 3.327222,
      "lon": 117.56528
    }
  },
  {
    "name_translations": {
      "en": "Parana",
      "pl": "Parana"
    },
    "country_code": "AR",
    "code": "PRA",
    "time_zone": "America/Argentina/Cordoba",
    "name": "Parana",
    "coordinates": {
      "lat": -31.795,
      "lon": -60.48
    }
  },
  {
    "name_translations": {
      "en": "Brasov",
      "pl": "Brasov"
    },
    "country_code": "RO",
    "code": "GHV",
    "time_zone": "Europe/Bucharest",
    "name": "Brasov",
    "coordinates": {
      "lat": 45.79,
      "lon": 25.28
    }
  },
  {
    "name_translations": {
      "en": "Kemerovo",
      "pl": "Kemerovo"
    },
    "country_code": "RU",
    "code": "KEJ",
    "time_zone": "Asia/Novokuznetsk",
    "name": "Kemerovo",
    "coordinates": {
      "lat": 55.280567,
      "lon": 86.11623
    }
  },
  {
    "name_translations": {
      "en": "Vero Beach",
      "pl": "Vero Beach"
    },
    "country_code": "US",
    "code": "VRB",
    "time_zone": "America/New_York",
    "name": "Vero Beach",
    "coordinates": {
      "lat": 27.6525,
      "lon": -80.41361
    }
  },
  {
    "name_translations": {
      "en": "Manzini",
      "pl": "Manzini"
    },
    "country_code": "SZ",
    "code": "MTS",
    "time_zone": "Africa/Mbabane",
    "name": "Manzini",
    "coordinates": {
      "lat": -26.52033,
      "lon": 31.314133
    }
  },
  {
    "name_translations": {
      "en": "Putao",
      "pl": "Putao"
    },
    "country_code": "MM",
    "code": "PBU",
    "time_zone": "Asia/Rangoon",
    "name": "Putao",
    "coordinates": {
      "lat": 27.333332,
      "lon": 97.416664
    }
  },
  {
    "name_translations": {
      "en": "Wolf Point",
      "pl": "Wolf Point"
    },
    "country_code": "US",
    "code": "OLF",
    "time_zone": "America/Denver",
    "name": "Wolf Point",
    "coordinates": {
      "lat": 48.094723,
      "lon": -105.56639
    }
  },
  {
    "name_translations": {
      "en": "Magnitogorsk",
      "pl": "Magnitogorsk"
    },
    "country_code": "RU",
    "code": "MQF",
    "time_zone": "Asia/Yekaterinburg",
    "name": "Magnitogorsk",
    "coordinates": {
      "lat": 53.45,
      "lon": 59.066666
    }
  },
  {
    "name_translations": {
      "en": "Dutch Harbor",
      "pl": "Dutch Harbor"
    },
    "country_code": "US",
    "code": "DUT",
    "time_zone": "America/Nome",
    "name": "Dutch Harbor",
    "coordinates": {
      "lat": 53.89446,
      "lon": -166.54224
    }
  },
  {
    "name_translations": {
      "en": "Mount Isa",
      "pl": "Góra Isa"
    },
    "country_code": "AU",
    "code": "ISA",
    "time_zone": "Australia/Brisbane",
    "name": "Mount Isa",
    "coordinates": {
      "lat": -20.667637,
      "lon": 139.49179
    }
  },
  {
    "name_translations": {
      "en": "Gallivare",
      "pl": "Gällivare"
    },
    "country_code": "SE",
    "code": "GEV",
    "time_zone": "Europe/Stockholm",
    "name": "Gallivare",
    "coordinates": {
      "lat": 67.134445,
      "lon": 20.816668
    }
  },
  {
    "name_translations": {
      "en": "Puerto Vallarta",
      "pl": "Puerto Vallarta"
    },
    "country_code": "MX",
    "code": "PVR",
    "time_zone": "America/Mexico_City",
    "name": "Puerto Vallarta",
    "coordinates": {
      "lat": 20.678297,
      "lon": -105.24898
    }
  },
  {
    "name_translations": {
      "en": "Brno",
      "pl": "Brno"
    },
    "country_code": "CZ",
    "code": "BRQ",
    "time_zone": "Europe/Prague",
    "name": "Brno",
    "coordinates": {
      "lat": 49.1909804,
      "lon": 16.6115347
    }
  },
  {
    "name_translations": {
      "en": "Ashgabat",
      "pl": "Ashkhabad"
    },
    "country_code": "TM",
    "code": "ASB",
    "time_zone": "Asia/Ashgabat",
    "name": "Ashgabat",
    "coordinates": {
      "lat": 37.984184,
      "lon": 58.366978
    }
  },
  {
    "name_translations": {
      "en": "Debrecen",
      "pl": "Debrecen"
    },
    "country_code": "HU",
    "code": "DEB",
    "time_zone": "Europe/Budapest",
    "name": "Debrecen",
    "coordinates": {
      "lat": 47.55,
      "lon": 21.7
    }
  },
  {
    "name_translations": {
      "en": "Freeport",
      "pl": "Freeport"
    },
    "country_code": "BS",
    "code": "FPO",
    "time_zone": "America/Nassau",
    "name": "Freeport",
    "coordinates": {
      "lat": 26.547293,
      "lon": -78.7052
    }
  },
  {
    "name_translations": {
      "en": "Varanasi",
      "pl": "Varanasi"
    },
    "country_code": "IN",
    "code": "VNS",
    "time_zone": "Asia/Kolkata",
    "name": "Varanasi",
    "coordinates": {
      "lat": 25.449697,
      "lon": 82.85373
    }
  },
  {
    "name_translations": {
      "en": "Moscow",
      "pl": "Moskwa"
    },
    "country_code": "RU",
    "code": "MOW",
    "time_zone": "Europe/Moscow",
    "name": "Moscow",
    "coordinates": {
      "lat": 55.755786,
      "lon": 37.617633
    }
  },
  {
    "name_translations": {
      "en": "Tekirdag",
      "pl": "Tekirdag"
    },
    "country_code": "TR",
    "code": "TEQ",
    "time_zone": "Europe/Istanbul",
    "name": "Tekirdag",
    "coordinates": {
      "lat": 40.966667,
      "lon": 27.5
    }
  },
  {
    "name_translations": {
      "en": "Culebra",
      "pl": "Culebra"
    },
    "country_code": "PR",
    "code": "CPX",
    "time_zone": "America/Puerto_Rico",
    "name": "Culebra",
    "coordinates": {
      "lat": 18.3,
      "lon": -65.316666
    }
  },
  {
    "name_translations": {
      "en": "Recife",
      "pl": "Recife"
    },
    "country_code": "BR",
    "code": "REC",
    "time_zone": "America/Recife",
    "name": "Recife",
    "coordinates": {
      "lat": -8.131507,
      "lon": -34.91792
    }
  },
  {
    "name_translations": {
      "en": "Pretoria",
      "pl": "Pretoria"
    },
    "country_code": "ZA",
    "code": "PRY",
    "time_zone": "Africa/Johannesburg",
    "name": "Pretoria",
    "coordinates": {
      "lat": -25.73134,
      "lon": 28.21837
    }
  },
  {
    "name_translations": {
      "en": "Napier",
      "pl": "Napier/Hastings"
    },
    "country_code": "NZ",
    "code": "NPE",
    "time_zone": "Pacific/Auckland",
    "name": "Napier",
    "coordinates": {
      "lat": -39.46667,
      "lon": 176.87225
    }
  },
  {
    "name_translations": {
      "en": "Mirnyj",
      "pl": "Mirnyj"
    },
    "country_code": "RU",
    "code": "MJZ",
    "time_zone": "Asia/Yakutsk",
    "name": "Mirnyj",
    "coordinates": {
      "lat": 62.533333,
      "lon": 114.03333
    }
  },
  {
    "name_translations": {
      "en": "Rajshahi",
      "pl": "Rajshahi"
    },
    "country_code": "BD",
    "code": "RJH",
    "time_zone": "Asia/Dhaka",
    "name": "Rajshahi",
    "coordinates": {
      "lat": 24.433332,
      "lon": 88.61667
    }
  },
  {
    "name_translations": {
      "en": "Kamloops",
      "pl": "Kamloops"
    },
    "country_code": "CA",
    "code": "YKA",
    "time_zone": "America/Vancouver",
    "name": "Kamloops",
    "coordinates": {
      "lat": 50.70545,
      "lon": -120.442024
    }
  },
  {
    "name_translations": {
      "en": "West Yellowstone",
      "pl": "West Yellowstone"
    },
    "country_code": "US",
    "code": "WYS",
    "time_zone": "America/Denver",
    "name": "West Yellowstone",
    "coordinates": {
      "lat": 44.68667,
      "lon": -111.10472
    }
  },
  {
    "name_translations": {
      "en": "Roatan",
      "pl": "Roatan"
    },
    "country_code": "HN",
    "code": "RTB",
    "time_zone": "America/Tegucigalpa",
    "name": "Roatan",
    "coordinates": {
      "lat": 16.318209,
      "lon": -86.52722
    }
  },
  {
    "name_translations": {
      "en": "Dothan",
      "pl": "Dothan"
    },
    "country_code": "US",
    "code": "DHN",
    "time_zone": "America/Chicago",
    "name": "Dothan",
    "coordinates": {
      "lat": 31.32,
      "lon": -85.44833
    }
  },
  {
    "name_translations": {
      "en": "Tijuana",
      "pl": "Tihuana"
    },
    "country_code": "MX",
    "code": "TIJ",
    "time_zone": "America/Tijuana",
    "name": "Tijuana",
    "coordinates": {
      "lat": 32.546284,
      "lon": -116.97466
    }
  },
  {
    "name_translations": {
      "en": "Rajkot",
      "pl": "Rajkot"
    },
    "country_code": "IN",
    "code": "RAJ",
    "time_zone": "Asia/Kolkata",
    "name": "Rajkot",
    "coordinates": {
      "lat": 22.308674,
      "lon": 70.78235
    }
  },
  {
    "name_translations": {
      "en": "Durham Tees Valley",
      "pl": "Teesside"
    },
    "country_code": "GB",
    "code": "MME",
    "time_zone": "Europe/London",
    "name": "Durham Tees Valley",
    "coordinates": {
      "lat": 54.51,
      "lon": -1.43
    }
  },
  {
    "name_translations": {
      "en": "Las Piedras",
      "pl": "Las Piedras"
    },
    "country_code": "VE",
    "code": "LSP",
    "time_zone": "America/Caracas",
    "name": "Las Piedras",
    "coordinates": {
      "lat": 11.777155,
      "lon": -70.14961
    }
  },
  {
    "name_translations": {
      "en": "Devils Lake",
      "pl": "Devils Lake"
    },
    "country_code": "US",
    "code": "DVL",
    "time_zone": "America/Chicago",
    "name": "Devils Lake",
    "coordinates": {
      "lat": 48.113056,
      "lon": -98.9075
    }
  },
  {
    "name_translations": {
      "en": "Esquel",
      "pl": "Esquel"
    },
    "country_code": "AR",
    "code": "EQS",
    "time_zone": "America/Argentina/Catamarca",
    "name": "Esquel",
    "coordinates": {
      "lat": -42.90972,
      "lon": -71.1425
    }
  },
  {
    "name_translations": {
      "en": "Isafjordur",
      "pl": "Isafjordur"
    },
    "country_code": "IS",
    "code": "IFJ",
    "time_zone": "Atlantic/Reykjavik",
    "name": "Isafjordur",
    "coordinates": {
      "lat": 66.05972,
      "lon": -23.132778
    }
  },
  {
    "name_translations": {
      "en": "Olbia",
      "pl": "Olbia"
    },
    "country_code": "IT",
    "code": "OLB",
    "time_zone": "Europe/Rome",
    "name": "Olbia",
    "coordinates": {
      "lat": 40.903145,
      "lon": 9.514823
    }
  },
  {
    "name_translations": {
      "en": "Ulaanbaatar",
      "pl": "Ułan Bator"
    },
    "country_code": "MN",
    "code": "UBN",
    "time_zone": "Asia/Ulaanbaatar",
    "name": "Ulaanbaatar",
    "coordinates": {
      "lat": 47.85275,
      "lon": 106.76327
    }
  },
  {
    "name_translations": {
      "en": "Norfolk Island",
      "pl": "Wyspy Norfolk"
    },
    "country_code": "NF",
    "code": "NLK",
    "time_zone": "Pacific/Norfolk",
    "name": "Norfolk Island",
    "coordinates": {
      "lat": -29.0425,
      "lon": 167.93944
    }
  },
  {
    "name_translations": {
      "en": "Lafayette",
      "pl": "Lafayette"
    },
    "country_code": "US",
    "code": "LAF",
    "time_zone": "America/Indiana/Indianapolis",
    "name": "Lafayette",
    "coordinates": {
      "lat": 40.411945,
      "lon": -86.93361
    }
  },
  {
    "name_translations": {
      "en": "Lucknow",
      "pl": "Lucknow"
    },
    "country_code": "IN",
    "code": "LKO",
    "time_zone": "Asia/Kolkata",
    "name": "Lucknow",
    "coordinates": {
      "lat": 26.764257,
      "lon": 80.884186
    }
  },
  {
    "name_translations": {
      "en": "Nuuk",
      "pl": "Nuuk"
    },
    "country_code": "GL",
    "code": "GOH",
    "time_zone": "America/Godthab",
    "name": "Nuuk",
    "coordinates": {
      "lat": 64.181946,
      "lon": -51.725
    }
  },
  {
    "name_translations": {
      "en": "Chita",
      "pl": "Czyta"
    },
    "country_code": "RU",
    "code": "HTA",
    "time_zone": "Asia/Chita",
    "name": "Chita",
    "coordinates": {
      "lat": 52.033333,
      "lon": 113.3
    }
  },
  {
    "name_translations": {
      "en": "Oyem",
      "pl": "Oyem"
    },
    "country_code": "GA",
    "code": "OYE",
    "time_zone": "Africa/Libreville",
    "name": "Oyem",
    "coordinates": {
      "lat": 1.566667,
      "lon": 11.583333
    }
  },
  {
    "name_translations": {
      "en": "Cuneo",
      "pl": "Cuneo"
    },
    "country_code": "IT",
    "code": "CUF",
    "time_zone": "Europe/Rome",
    "name": "Cuneo",
    "coordinates": {
      "lat": 44.53528,
      "lon": 7.6175
    }
  },
  {
    "name_translations": {
      "en": "Comayagua",
      "pl": "Comayagua"
    },
    "country_code": "HN",
    "code": "XPL",
    "time_zone": "America/Tegucigalpa",
    "name": "Comayagua",
    "coordinates": {
      "lat": 14.416667,
      "lon": -87.61667
    }
  },
  {
    "name_translations": {
      "en": "Bakersfield",
      "pl": "Bakersfield"
    },
    "country_code": "US",
    "code": "BFL",
    "time_zone": "America/Los_Angeles",
    "name": "Bakersfield",
    "coordinates": {
      "lat": 35.429626,
      "lon": -119.04533
    }
  },
  {
    "name_translations": {
      "en": "Jaipur",
      "pl": "Jaipur"
    },
    "country_code": "IN",
    "code": "JAI",
    "time_zone": "Asia/Kolkata",
    "name": "Jaipur",
    "coordinates": {
      "lat": 26.820772,
      "lon": 75.80151
    }
  },
  {
    "name_translations": {
      "en": "Diqing",
      "pl": "Diqing"
    },
    "country_code": "CN",
    "code": "DIG",
    "time_zone": "Asia/Shanghai",
    "name": "Diqing",
    "coordinates": {
      "lat": 27.789722,
      "lon": 99.67778
    }
  },
  {
    "name_translations": {
      "en": "Nanaimo",
      "pl": "Nanaimo"
    },
    "country_code": "CA",
    "code": "YCD",
    "time_zone": "America/Vancouver",
    "name": "Nanaimo",
    "coordinates": {
      "lat": 49.05,
      "lon": -123.86667
    }
  },
  {
    "name_translations": {
      "en": "Kolkata",
      "pl": "Kalkuta"
    },
    "country_code": "IN",
    "code": "CCU",
    "time_zone": "Asia/Kolkata",
    "name": "Kolkata",
    "coordinates": {
      "lat": 22.64531,
      "lon": 88.43931
    }
  },
  {
    "name_translations": {
      "en": "Taitung City",
      "pl": "Taitung"
    },
    "country_code": "TW",
    "code": "TTT",
    "time_zone": "Asia/Taipei",
    "name": "Taitung City",
    "coordinates": {
      "lat": 22.75,
      "lon": 121.1
    }
  },
  {
    "name_translations": {
      "en": "Cobar",
      "pl": "Cobar"
    },
    "country_code": "AU",
    "code": "CAZ",
    "time_zone": "Australia/Sydney",
    "name": "Cobar",
    "coordinates": {
      "lat": -31.535,
      "lon": 145.79333
    }
  },
  {
    "name_translations": {
      "en": "Vardoe",
      "pl": "Vardoe"
    },
    "country_code": "NO",
    "code": "VAW",
    "time_zone": "Europe/Oslo",
    "name": "Vardoe",
    "coordinates": {
      "lat": 70.35472,
      "lon": 31.045555
    }
  },
  {
    "name_translations": {
      "en": "Pskov",
      "pl": "Pskov"
    },
    "country_code": "RU",
    "code": "PKV",
    "time_zone": "Europe/Moscow",
    "name": "Pskov",
    "coordinates": {
      "lat": 57.816666,
      "lon": 28.3
    }
  },
  {
    "name_translations": {
      "en": "Denpasar (Bali)",
      "pl": "Denpasar (Bali)"
    },
    "country_code": "ID",
    "code": "DPS",
    "time_zone": "Asia/Makassar",
    "name": "Denpasar (Bali)",
    "coordinates": {
      "lat": -8.74446,
      "lon": 115.16331
    }
  },
  {
    "name_translations": {
      "en": "Gelendzik",
      "pl": "Gelendzik"
    },
    "country_code": "RU",
    "code": "GDZ",
    "time_zone": "Europe/Moscow",
    "name": "Gelendzik",
    "coordinates": {
      "lat": 44.566666,
      "lon": 38.016666
    }
  },
  {
    "name_translations": {
      "en": "Pleiku",
      "pl": "Pleiku"
    },
    "country_code": "VN",
    "code": "PXU",
    "time_zone": "Asia/Ho_Chi_Minh",
    "name": "Pleiku",
    "coordinates": {
      "lat": 14.006346,
      "lon": 108.00896
    }
  },
  {
    "name_translations": {
      "en": "Leon",
      "pl": "Leon"
    },
    "country_code": "ES",
    "code": "LEN",
    "time_zone": "Europe/Madrid",
    "name": "Leon",
    "coordinates": {
      "lat": 42.5998764,
      "lon": -5.571752
    }
  },
  {
    "name_translations": {
      "en": "Cayman Brac Island",
      "pl": "Cayman Brac"
    },
    "country_code": "KY",
    "code": "CYB",
    "time_zone": "America/Cayman",
    "name": "Cayman Brac Island",
    "coordinates": {
      "lat": 19.690191,
      "lon": -79.87941
    }
  },
  {
    "name_translations": {
      "en": "El Dorado",
      "pl": "El Dorado"
    },
    "country_code": "US",
    "code": "ELD",
    "time_zone": "America/Chicago",
    "name": "El Dorado",
    "coordinates": {
      "lat": 33.220554,
      "lon": -92.81472
    }
  },
  {
    "name_translations": {
      "en": "Nakhon Phanom",
      "pl": "Nakhon Phanom"
    },
    "country_code": "TH",
    "code": "KOP",
    "time_zone": "Asia/Bangkok",
    "name": "Nakhon Phanom",
    "coordinates": {
      "lat": 17.4,
      "lon": 104.75
    }
  },
  {
    "name_translations": {
      "en": "Merimbula",
      "pl": "Merimbula"
    },
    "country_code": "AU",
    "code": "MIM",
    "time_zone": "Australia/Sydney",
    "name": "Merimbula",
    "coordinates": {
      "lat": -36.910046,
      "lon": 149.90202
    }
  },
  {
    "name_translations": {
      "en": "Anqing",
      "pl": "Anqing"
    },
    "country_code": "CN",
    "code": "AQG",
    "time_zone": "Asia/Shanghai",
    "name": "Anqing",
    "coordinates": {
      "lat": 30.5825,
      "lon": 117.0509
    }
  },
  {
    "name_translations": {
      "en": "Shenzhen",
      "pl": "Shenzhen"
    },
    "country_code": "CN",
    "code": "SZX",
    "time_zone": "Asia/Shanghai",
    "name": "Shenzhen",
    "coordinates": {
      "lat": 22.543099,
      "lon": 114.057868
    }
  },
  {
    "name_translations": {
      "en": "Schefferville",
      "pl": "Schefferville"
    },
    "country_code": "CA",
    "code": "YKL",
    "time_zone": "America/Montreal",
    "name": "Schefferville",
    "coordinates": {
      "lat": 54.783333,
      "lon": -64.816666
    }
  },
  {
    "name_translations": {
      "en": "Langkawi",
      "pl": "Langkawi"
    },
    "country_code": "MY",
    "code": "LGK",
    "time_zone": "Asia/Kuala_Lumpur",
    "name": "Langkawi",
    "coordinates": {
      "lat": 6.342174,
      "lon": 99.7314
    }
  },
  {
    "name_translations": {
      "en": "North Bend",
      "pl": "North Bend"
    },
    "country_code": "US",
    "code": "OTH",
    "time_zone": "America/Los_Angeles",
    "name": "North Bend",
    "coordinates": {
      "lat": 43.418888,
      "lon": -124.24
    }
  },
  {
    "name_translations": {
      "en": "Macau",
      "pl": "Makau"
    },
    "country_code": "MO",
    "code": "MFM",
    "time_zone": "Asia/Macau",
    "name": "Macau",
    "coordinates": {
      "lat": 22.1638446,
      "lon": 113.5549937
    }
  },
  {
    "name_translations": {
      "en": "Dalaman",
      "pl": "Dalaman"
    },
    "country_code": "TR",
    "code": "DLM",
    "time_zone": "Europe/Istanbul",
    "name": "Dalaman",
    "coordinates": {
      "lat": 36.716667,
      "lon": 28.783333
    }
  },
  {
    "name_translations": {
      "en": "Surgut",
      "pl": "Surgut"
    },
    "country_code": "RU",
    "code": "SGC",
    "time_zone": "Asia/Yekaterinburg",
    "name": "Surgut",
    "coordinates": {
      "lat": 61.339916,
      "lon": 73.40953
    }
  },
  {
    "name_translations": {
      "en": "Tottori",
      "pl": "Tottori"
    },
    "country_code": "JP",
    "code": "TTJ",
    "time_zone": "Asia/Tokyo",
    "name": "Tottori",
    "coordinates": {
      "lat": 35.525913,
      "lon": 134.16756
    }
  },
  {
    "name_translations": {
      "en": "Luoyang",
      "pl": "Luoyang"
    },
    "country_code": "CN",
    "code": "LYA",
    "time_zone": "Asia/Shanghai",
    "name": "Luoyang",
    "coordinates": {
      "lat": 34.736362,
      "lon": 112.38541
    }
  },
  {
    "name_translations": {
      "en": "Hot Springs",
      "pl": "Hot Springs"
    },
    "country_code": "US",
    "code": "HOT",
    "time_zone": "America/Chicago",
    "name": "Hot Springs",
    "coordinates": {
      "lat": 34.47889,
      "lon": -93.09611
    }
  },
  {
    "name_translations": {
      "en": "Rasht",
      "pl": "Rasht"
    },
    "country_code": "IR",
    "code": "RAS",
    "time_zone": "Asia/Tehran",
    "name": "Rasht",
    "coordinates": {
      "lat": 37.321815,
      "lon": 49.619587
    }
  },
  {
    "name_translations": {
      "en": "Porto Seguro",
      "pl": "Porto Seguro"
    },
    "country_code": "BR",
    "code": "BPS",
    "time_zone": "America/Bahia",
    "name": "Porto Seguro",
    "coordinates": {
      "lat": -16.441158,
      "lon": -39.081097
    }
  },
  {
    "name_translations": {
      "en": "El Bagre",
      "pl": "El Bagre"
    },
    "country_code": "CO",
    "code": "EBG",
    "time_zone": "America/Bogota",
    "name": "El Bagre",
    "coordinates": {
      "lat": 7.616667,
      "lon": -74.816666
    }
  },
  {
    "name_translations": {
      "en": "Huizhou",
      "pl": "Huizhou"
    },
    "country_code": "CN",
    "code": "HUZ",
    "time_zone": "Asia/Shanghai",
    "name": "Huizhou",
    "coordinates": {
      "lat": 23.083332,
      "lon": 114.36667
    }
  },
  {
    "name_translations": {
      "en": "Ust-Tsilma",
      "pl": "Ust-Tsilma"
    },
    "country_code": "RU",
    "code": "UTS",
    "time_zone": "Europe/Moscow",
    "name": "Ust-Tsilma",
    "coordinates": {
      "lat": 65.433334,
      "lon": 52.2
    }
  },
  {
    "name_translations": {
      "en": "Lanzhou",
      "pl": "Lanzhou"
    },
    "country_code": "CN",
    "code": "LHW",
    "time_zone": "Asia/Shanghai",
    "name": "Lanzhou",
    "coordinates": {
      "lat": 36.033333,
      "lon": 103.86667
    }
  },
  {
    "name_translations": {
      "en": "Vilanculos",
      "pl": "Vilanculos"
    },
    "country_code": "MZ",
    "code": "VNX",
    "time_zone": "Africa/Maputo",
    "name": "Vilanculos",
    "coordinates": {
      "lat": -22.016666,
      "lon": 35.283333
    }
  },
  {
    "name_translations": {
      "en": "El Calafate",
      "pl": "El Calafate"
    },
    "country_code": "AR",
    "code": "FTE",
    "time_zone": "America/Argentina/Rio_Gallegos",
    "name": "El Calafate",
    "coordinates": {
      "lat": -50.284225,
      "lon": -72.053696
    }
  },
  {
    "name_translations": {
      "en": "Alamosa",
      "pl": "Alamosa"
    },
    "country_code": "US",
    "code": "ALS",
    "time_zone": "America/Denver",
    "name": "Alamosa",
    "coordinates": {
      "lat": 37.43667,
      "lon": -105.86667
    }
  },
  {
    "name_translations": {
      "en": "Harrison",
      "pl": "Harrison"
    },
    "country_code": "US",
    "code": "HRO",
    "time_zone": "America/Chicago",
    "name": "Harrison",
    "coordinates": {
      "lat": 36.261665,
      "lon": -93.155556
    }
  },
  {
    "name_translations": {
      "en": "Gunnison",
      "pl": "Gunnison,CO"
    },
    "country_code": "US",
    "code": "GUC",
    "time_zone": "America/Denver",
    "name": "Gunnison",
    "coordinates": {
      "lat": 38.53389,
      "lon": -106.93889
    }
  },
  {
    "name_translations": {
      "en": "Yushu",
      "pl": "Yushu"
    },
    "country_code": "CN",
    "code": "YUS",
    "time_zone": "Asia/Shanghai",
    "name": "Yushu",
    "coordinates": {
      "lat": 32.8399,
      "lon": 97.0379
    }
  },
  {
    "name_translations": {
      "en": "Changchun",
      "pl": "Changchun"
    },
    "country_code": "CN",
    "code": "CGQ",
    "time_zone": "Asia/Shanghai",
    "name": "Changchun",
    "coordinates": {
      "lat": 43.902836,
      "lon": 125.217545
    }
  },
  {
    "name_translations": {
      "en": "Lubango",
      "pl": "Lubango"
    },
    "country_code": "AO",
    "code": "SDD",
    "time_zone": "Africa/Luanda",
    "name": "Lubango",
    "coordinates": {
      "lat": -14.924444,
      "lon": 13.576667
    }
  },
  {
    "name_translations": {
      "en": "Dodge City",
      "pl": "Dodge City"
    },
    "country_code": "US",
    "code": "DDC",
    "time_zone": "America/Chicago",
    "name": "Dodge City",
    "coordinates": {
      "lat": 37.761665,
      "lon": -99.965
    }
  },
  {
    "name_translations": {
      "en": "Tallinn",
      "pl": "Tallinn"
    },
    "country_code": "EE",
    "code": "TLL",
    "time_zone": "Europe/Tallinn",
    "name": "Tallinn",
    "coordinates": {
      "lat": 59.4388619,
      "lon": 24.7544715
    }
  },
  {
    "name_translations": {
      "en": "Laoag",
      "pl": "Laoag"
    },
    "country_code": "PH",
    "code": "LAO",
    "time_zone": "Asia/Manila",
    "name": "Laoag",
    "coordinates": {
      "lat": 18.182407,
      "lon": 120.53413
    }
  },
  {
    "name_translations": {
      "en": "Yap, Caroline Islands",
      "pl": "Yap"
    },
    "country_code": "FM",
    "code": "YAP",
    "time_zone": "Pacific/Chuuk",
    "name": "Yap, Caroline Islands",
    "coordinates": {
      "lat": 9.497715,
      "lon": 138.08673
    }
  },
  {
    "name_translations": {
      "en": "Acapulco",
      "pl": "Acapulco"
    },
    "country_code": "MX",
    "code": "ACA",
    "time_zone": "America/Mexico_City",
    "name": "Acapulco",
    "coordinates": {
      "lat": 16.762403,
      "lon": -99.75459
    }
  },
  {
    "name_translations": {
      "en": "Powell River",
      "pl": "Powell River"
    },
    "country_code": "CA",
    "code": "YPW",
    "time_zone": "America/Vancouver",
    "name": "Powell River",
    "coordinates": {
      "lat": 49.816666,
      "lon": -124.5
    }
  },
  {
    "name_translations": {
      "en": "Kerikeri",
      "pl": "Kerikeri"
    },
    "country_code": "NZ",
    "code": "KKE",
    "time_zone": "Pacific/Auckland",
    "name": "Kerikeri",
    "coordinates": {
      "lat": -35.263283,
      "lon": 173.91237
    }
  },
  {
    "name_translations": {
      "en": "Fort Myers",
      "pl": "Fort Myers"
    },
    "country_code": "US",
    "code": "FMY",
    "time_zone": "America/New_York",
    "name": "Fort Myers",
    "coordinates": {
      "lat": 26.640628,
      "lon": -81.8723084
    }
  },
  {
    "name_translations": {
      "en": "Chiang Mai",
      "pl": "Chiang Mai"
    },
    "country_code": "TH",
    "code": "CNX",
    "time_zone": "Asia/Bangkok",
    "name": "Chiang Mai",
    "coordinates": {
      "lat": 18.769573,
      "lon": 98.96841
    }
  },
  {
    "name_translations": {
      "en": "Kuwait",
      "pl": "Kuwejt"
    },
    "country_code": "KW",
    "code": "KWI",
    "time_zone": "Asia/Kuwait",
    "name": "Kuwait",
    "coordinates": {
      "lat": 29.240116,
      "lon": 47.971252
    }
  },
  {
    "name_translations": {
      "en": "Amami O Shima",
      "pl": "Amami O Shima"
    },
    "country_code": "JP",
    "code": "ASJ",
    "time_zone": "Asia/Tokyo",
    "name": "Amami O Shima",
    "coordinates": {
      "lat": 28.431522,
      "lon": 129.70793
    }
  },
  {
    "name_translations": {
      "en": "Vilhelmina",
      "pl": "Vilhelmina"
    },
    "country_code": "SE",
    "code": "VHM",
    "time_zone": "Europe/Stockholm",
    "name": "Vilhelmina",
    "coordinates": {
      "lat": 64.61667,
      "lon": 16.65
    }
  },
  {
    "name_translations": {
      "en": "Povungnituk",
      "pl": "Povungnituk"
    },
    "country_code": "CA",
    "code": "YPX",
    "time_zone": "America/Montreal",
    "name": "Povungnituk",
    "coordinates": {
      "lat": 60.033333,
      "lon": -77.166664
    }
  },
  {
    "name_translations": {
      "en": "Rabat",
      "pl": "Rabat"
    },
    "country_code": "MA",
    "code": "RBA",
    "time_zone": "Africa/Casablanca",
    "name": "Rabat",
    "coordinates": {
      "lat": 34.036137,
      "lon": -6.748619
    }
  },
  {
    "name_translations": {
      "en": "Calvi",
      "pl": "Calvi"
    },
    "country_code": "FR",
    "code": "CLY",
    "time_zone": "Europe/Paris",
    "name": "Calvi",
    "coordinates": {
      "lat": 42.52778,
      "lon": 8.791667
    }
  },
  {
    "name_translations": {
      "en": "Kokkola/Pietarsaari",
      "pl": "Kokkola/Pietarsaari"
    },
    "country_code": "FI",
    "code": "KOK",
    "time_zone": "Europe/Helsinki",
    "name": "Kokkola/Pietarsaari",
    "coordinates": {
      "lat": 63.718838,
      "lon": 23.133068
    }
  },
  {
    "name_translations": {
      "en": "Jamnagar",
      "pl": "Jamnagar"
    },
    "country_code": "IN",
    "code": "JGA",
    "time_zone": "Asia/Kolkata",
    "name": "Jamnagar",
    "coordinates": {
      "lat": 22.463333,
      "lon": 70.01195
    }
  },
  {
    "name_translations": {
      "en": "Montevideo",
      "pl": "Montevideo"
    },
    "country_code": "UY",
    "code": "MVD",
    "time_zone": "America/Montevideo",
    "name": "Montevideo",
    "coordinates": {
      "lat": -34.8836111,
      "lon": -56.1819444
    }
  },
  {
    "name_translations": {
      "en": "Zhanjiang",
      "pl": "Zhanjiang"
    },
    "country_code": "CN",
    "code": "ZHA",
    "time_zone": "Asia/Shanghai",
    "name": "Zhanjiang",
    "coordinates": {
      "lat": 21.214727,
      "lon": 110.36272
    }
  },
  {
    "name_translations": {
      "en": "Bikaner",
      "pl": "Bikaner"
    },
    "country_code": "IN",
    "code": "BKB",
    "time_zone": "Asia/Kolkata",
    "name": "Bikaner",
    "coordinates": {
      "lat": 28.016666,
      "lon": 73.3
    }
  },
  {
    "name_translations": {
      "en": "Newport News",
      "pl": "Newport News"
    },
    "country_code": "US",
    "code": "PHF",
    "time_zone": "America/New_York",
    "name": "Newport News",
    "coordinates": {
      "lat": 36.9787588,
      "lon": -76.428003
    }
  },
  {
    "name_translations": {
      "en": "Cap Skirring",
      "pl": "Cap Skirring"
    },
    "country_code": "SN",
    "code": "CSK",
    "time_zone": "Africa/Dakar",
    "name": "Cap Skirring",
    "coordinates": {
      "lat": 12.4,
      "lon": -16.75
    }
  },
  {
    "name_translations": {
      "en": "Shirahama",
      "pl": "Shirahama"
    },
    "country_code": "JP",
    "code": "SHM",
    "time_zone": "Asia/Tokyo",
    "name": "Shirahama",
    "coordinates": {
      "lat": 33.66139,
      "lon": 135.35806
    }
  },
  {
    "name_translations": {
      "en": "Sialkot",
      "pl": "Sialkot"
    },
    "country_code": "PK",
    "code": "SKT",
    "time_zone": "Asia/Karachi",
    "name": "Sialkot",
    "coordinates": {
      "lat": 32.533333,
      "lon": 74.5
    }
  },
  {
    "name_translations": {
      "en": "Sofia",
      "pl": "Sofia"
    },
    "country_code": "BG",
    "code": "SOF",
    "time_zone": "Europe/Sofia",
    "name": "Sofia",
    "coordinates": {
      "lat": 42.688343,
      "lon": 23.41443
    }
  },
  {
    "name_translations": {
      "en": "Kitale",
      "pl": "Kitale"
    },
    "country_code": "KE",
    "code": "KTL",
    "time_zone": "Africa/Nairobi",
    "name": "Kitale",
    "coordinates": {
      "lat": 0.974111,
      "lon": 34.959248
    }
  },
  {
    "name_translations": {
      "en": "Kanpur",
      "pl": "Kanpur"
    },
    "country_code": "IN",
    "code": "KNU",
    "time_zone": "Asia/Kolkata",
    "name": "Kanpur",
    "coordinates": {
      "lat": 26.402779,
      "lon": 80.4125
    }
  },
  {
    "name_translations": {
      "en": "Lourdes",
      "pl": "Lourdes"
    },
    "country_code": "FR",
    "code": "LDE",
    "time_zone": "Europe/Paris",
    "name": "Lourdes",
    "coordinates": {
      "lat": 43.18651,
      "lon": 0.003368
    }
  },
  {
    "name_translations": {
      "en": "Fez",
      "pl": "Fez"
    },
    "country_code": "MA",
    "code": "FEZ",
    "time_zone": "Africa/Casablanca",
    "name": "Fez",
    "coordinates": {
      "lat": 33.93079,
      "lon": -4.982138
    }
  },
  {
    "name_translations": {
      "en": "Linfen",
      "pl": "Linfen"
    },
    "country_code": "CN",
    "code": "LFQ",
    "time_zone": "Asia/Shanghai",
    "name": "Linfen",
    "coordinates": {
      "lat": 36.13222,
      "lon": 111.64158
    }
  },
  {
    "name_translations": {
      "en": "Fortaleza",
      "pl": "Fortaleza"
    },
    "country_code": "BR",
    "code": "FOR",
    "time_zone": "America/Fortaleza",
    "name": "Fortaleza",
    "coordinates": {
      "lat": -3.779073,
      "lon": -38.540836
    }
  },
  {
    "name_translations": {
      "en": "Vieques",
      "pl": "Vieques"
    },
    "country_code": "PR",
    "code": "VQS",
    "time_zone": "America/Puerto_Rico",
    "name": "Vieques",
    "coordinates": {
      "lat": 18.134089,
      "lon": -65.48803
    }
  },
  {
    "name_translations": {
      "en": "Dili",
      "pl": "Dili"
    },
    "country_code": "TL",
    "code": "DIL",
    "time_zone": "Asia/Dili",
    "name": "Dili",
    "coordinates": {
      "lat": -8.549616,
      "lon": 125.525
    }
  },
  {
    "name_translations": {
      "en": "Nanchang",
      "pl": "Nanchang"
    },
    "country_code": "CN",
    "code": "KHN",
    "time_zone": "Asia/Shanghai",
    "name": "Nanchang",
    "coordinates": {
      "lat": 28.859901,
      "lon": 115.907845
    }
  },
  {
    "name_translations": {
      "en": "Wuhan",
      "pl": "Wuhan"
    },
    "country_code": "CN",
    "code": "WUH",
    "time_zone": "Asia/Shanghai",
    "name": "Wuhan",
    "coordinates": {
      "lat": 30.776598,
      "lon": 114.209625
    }
  },
  {
    "name_translations": {
      "en": "Erbil",
      "pl": "Erbil"
    },
    "country_code": "IQ",
    "code": "EBL",
    "time_zone": "Asia/Baghdad",
    "name": "Erbil",
    "coordinates": {
      "lat": 36.2375,
      "lon": 43.963055
    }
  },
  {
    "name_translations": {
      "en": "Tongliao",
      "pl": "Tongliao"
    },
    "country_code": "CN",
    "code": "TGO",
    "time_zone": "Asia/Shanghai",
    "name": "Tongliao",
    "coordinates": {
      "lat": 43.55701,
      "lon": 122.204605
    }
  },
  {
    "name_translations": {
      "en": "Tlemcen",
      "pl": "Tlemcen"
    },
    "country_code": "DZ",
    "code": "TLM",
    "time_zone": "Africa/Algiers",
    "name": "Tlemcen",
    "coordinates": {
      "lat": 35.016666,
      "lon": -1.45
    }
  },
  {
    "name_translations": {
      "en": "Chicago",
      "pl": "Chicago"
    },
    "country_code": "US",
    "code": "CHI",
    "time_zone": "America/Chicago",
    "name": "Chicago",
    "coordinates": {
      "lat": 41.8781136,
      "lon": -87.6297982
    }
  },
  {
    "name_translations": {
      "en": "Armenia",
      "pl": "Armenia"
    },
    "country_code": "CO",
    "code": "AXM",
    "time_zone": "America/Bogota",
    "name": "Armenia",
    "coordinates": {
      "lat": 4.452869,
      "lon": -75.76804
    }
  },
  {
    "name_translations": {
      "en": "Escanaba",
      "pl": "Escanaba"
    },
    "country_code": "US",
    "code": "ESC",
    "time_zone": "America/Detroit",
    "name": "Escanaba",
    "coordinates": {
      "lat": 45.720554,
      "lon": -87.08667
    }
  },
  {
    "name_translations": {
      "en": "Dnipro",
      "pl": "Dniepr"
    },
    "country_code": "UA",
    "code": "DNK",
    "time_zone": "Europe/Kiev",
    "name": "Dnipro",
    "coordinates": {
      "lat": 48.36874,
      "lon": 35.09446
    }
  },
  {
    "name_translations": {
      "en": "Canberra",
      "pl": "Canberra"
    },
    "country_code": "AU",
    "code": "CBR",
    "time_zone": "Australia/Canberra",
    "name": "Canberra",
    "coordinates": {
      "lat": -35.30735,
      "lon": 149.19052
    }
  },
  {
    "name_translations": {
      "en": "Uruapan",
      "pl": "Uruapan"
    },
    "country_code": "MX",
    "code": "UPN",
    "time_zone": "America/Mexico_City",
    "name": "Uruapan",
    "coordinates": {
      "lat": 19.411112,
      "lon": -102.04722
    }
  },
  {
    "name_translations": {
      "en": "Ranong",
      "pl": "Ranong"
    },
    "country_code": "TH",
    "code": "UNN",
    "time_zone": "Asia/Bangkok",
    "name": "Ranong",
    "coordinates": {
      "lat": 9.852778,
      "lon": 98.629166
    }
  },
  {
    "name_translations": {
      "en": "Ciudad Del Carmen",
      "pl": "Ciudad del Carmen"
    },
    "country_code": "MX",
    "code": "CME",
    "time_zone": "America/Merida",
    "name": "Ciudad Del Carmen",
    "coordinates": {
      "lat": 18.65103,
      "lon": -91.802734
    }
  },
  {
    "name_translations": {
      "en": "Maiduguri",
      "pl": "Maiduguri"
    },
    "country_code": "NG",
    "code": "MIU",
    "time_zone": "Africa/Lagos",
    "name": "Maiduguri",
    "coordinates": {
      "lat": 11.844167,
      "lon": 13.068056
    }
  },
  {
    "name_translations": {
      "en": "Silver City",
      "pl": "Silver City"
    },
    "country_code": "US",
    "code": "SVC",
    "time_zone": "America/Denver",
    "name": "Silver City",
    "coordinates": {
      "lat": 32.631943,
      "lon": -108.15389
    }
  },
  {
    "name_translations": {
      "en": "Staunton",
      "pl": "Staunton"
    },
    "country_code": "US",
    "code": "SHD",
    "time_zone": "America/New_York",
    "name": "Staunton",
    "coordinates": {
      "lat": 38.26389,
      "lon": -78.89667
    }
  },
  {
    "name_translations": {
      "en": "Stokmarknes",
      "pl": "Storkmarknes"
    },
    "country_code": "NO",
    "code": "SKN",
    "time_zone": "Europe/Oslo",
    "name": "Stokmarknes",
    "coordinates": {
      "lat": 68.57915,
      "lon": 15.032921
    }
  },
  {
    "name_translations": {
      "en": "Lappeenranta",
      "pl": "Lappeenranta"
    },
    "country_code": "FI",
    "code": "LPP",
    "time_zone": "Europe/Helsinki",
    "name": "Lappeenranta",
    "coordinates": {
      "lat": 61.046112,
      "lon": 28.156668
    }
  },
  {
    "name_translations": {
      "en": "Granada",
      "pl": "Granada"
    },
    "country_code": "ES",
    "code": "GRX",
    "time_zone": "Europe/Madrid",
    "name": "Granada",
    "coordinates": {
      "lat": 37.1764874,
      "lon": -3.5979291
    }
  },
  {
    "name_translations": {
      "en": "San Salvador",
      "pl": "San Salvador"
    },
    "country_code": "BS",
    "code": "ZSA",
    "time_zone": "America/Nassau",
    "name": "San Salvador",
    "coordinates": {
      "lat": 24.06,
      "lon": -74.53306
    }
  },
  {
    "name_translations": {
      "en": "Puebla",
      "pl": "Puebla"
    },
    "country_code": "MX",
    "code": "PBC",
    "time_zone": "America/Mexico_City",
    "name": "Puebla",
    "coordinates": {
      "lat": 19.135,
      "lon": -98.3675
    }
  },
  {
    "name_translations": {
      "en": "Beaumont",
      "pl": "Beaumont"
    },
    "country_code": "US",
    "code": "BPT",
    "time_zone": "America/Chicago",
    "name": "Beaumont",
    "coordinates": {
      "lat": 29.950832,
      "lon": -94.02
    }
  },
  {
    "name_translations": {
      "en": "Skopje",
      "pl": "Skopje"
    },
    "country_code": "MK",
    "code": "SKP",
    "time_zone": "Europe/Skopje",
    "name": "Skopje",
    "coordinates": {
      "lat": 41.95649,
      "lon": 21.62872
    }
  },
  {
    "name_translations": {
      "en": "Campos",
      "pl": "Campos"
    },
    "country_code": "BR",
    "code": "CAW",
    "time_zone": "America/Sao_Paulo",
    "name": "Campos",
    "coordinates": {
      "lat": -21.75,
      "lon": -41.3
    }
  },
  {
    "name_translations": {
      "en": "Nueva Gerona",
      "pl": "Nueva Gerona"
    },
    "country_code": "CU",
    "code": "GER",
    "time_zone": "America/Havana",
    "name": "Nueva Gerona",
    "coordinates": {
      "lat": 21.8375,
      "lon": -82.78
    }
  },
  {
    "name_translations": {
      "en": "Wilmington",
      "pl": "Wilmington"
    },
    "country_code": "US",
    "code": "ILM",
    "time_zone": "America/New_York",
    "name": "Wilmington",
    "coordinates": {
      "lat": 34.26705,
      "lon": -77.91063
    }
  },
  {
    "name_translations": {
      "en": "Qiemo",
      "pl": "Qiemo"
    },
    "country_code": "CN",
    "code": "IQM",
    "time_zone": "Asia/Shanghai",
    "name": "Qiemo",
    "coordinates": {
      "lat": 38.13333,
      "lon": 85.53333
    }
  },
  {
    "name_translations": {
      "en": "Allentown",
      "pl": "Allentown"
    },
    "country_code": "US",
    "code": "ABE",
    "time_zone": "America/New_York",
    "name": "Allentown",
    "coordinates": {
      "lat": 40.651573,
      "lon": -75.434364
    }
  },
  {
    "name_translations": {
      "en": "Taree",
      "pl": "Taree"
    },
    "country_code": "AU",
    "code": "TRO",
    "time_zone": "Australia/Sydney",
    "name": "Taree",
    "coordinates": {
      "lat": -31.890272,
      "lon": 152.50896
    }
  },
  {
    "name_translations": {
      "en": "Kuito",
      "pl": "Kuito"
    },
    "country_code": "AO",
    "code": "SVP",
    "time_zone": "Africa/Luanda",
    "name": "Kuito",
    "coordinates": {
      "lat": -12.404167,
      "lon": 16.956667
    }
  },
  {
    "name_translations": {
      "en": "Okino Erabu",
      "pl": "Okino Erabu"
    },
    "country_code": "JP",
    "code": "OKE",
    "time_zone": "Asia/Tokyo",
    "name": "Okino Erabu",
    "coordinates": {
      "lat": 27.431667,
      "lon": 128.70555
    }
  },
  {
    "name_translations": {
      "en": "Yakutsk",
      "pl": "Jakuck"
    },
    "country_code": "RU",
    "code": "YKS",
    "time_zone": "Asia/Yakutsk",
    "name": "Yakutsk",
    "coordinates": {
      "lat": 62.085606,
      "lon": 129.75006
    }
  },
  {
    "name_translations": {
      "en": "Chadron",
      "pl": "Chadron"
    },
    "country_code": "US",
    "code": "CDR",
    "time_zone": "America/Denver",
    "name": "Chadron",
    "coordinates": {
      "lat": 42.835,
      "lon": -103.09778
    }
  },
  {
    "name_translations": {
      "en": "Freetown",
      "pl": "Freetown"
    },
    "country_code": "SL",
    "code": "FNA",
    "time_zone": "Africa/Freetown",
    "name": "Freetown",
    "coordinates": {
      "lat": 8.484146,
      "lon": -13.22867
    }
  },
  {
    "name_translations": {
      "en": "Axum",
      "pl": "Axum"
    },
    "country_code": "ET",
    "code": "AXU",
    "time_zone": "Africa/Addis_Ababa",
    "name": "Axum",
    "coordinates": {
      "lat": 14.120833,
      "lon": 38.716667
    }
  },
  {
    "name_translations": {
      "en": "Port Moresby",
      "pl": "Port Moresby"
    },
    "country_code": "PG",
    "code": "POM",
    "time_zone": "Pacific/Port_Moresby",
    "name": "Port Moresby",
    "coordinates": {
      "lat": -9.444308,
      "lon": 147.21446
    }
  },
  {
    "name_translations": {
      "en": "Iqaluit",
      "pl": "Iqaluit"
    },
    "country_code": "CA",
    "code": "YFB",
    "time_zone": "America/Iqaluit",
    "name": "Iqaluit",
    "coordinates": {
      "lat": 63.75175,
      "lon": -68.53658
    }
  },
  {
    "name_translations": {
      "en": "Cape Girardeau",
      "pl": "Cape Girardeau"
    },
    "country_code": "US",
    "code": "CGI",
    "time_zone": "America/Chicago",
    "name": "Cape Girardeau",
    "coordinates": {
      "lat": 37.22361,
      "lon": -89.57167
    }
  },
  {
    "name_translations": {
      "en": "Nanning",
      "pl": "Nanning"
    },
    "country_code": "CN",
    "code": "NNG",
    "time_zone": "Asia/Shanghai",
    "name": "Nanning",
    "coordinates": {
      "lat": 22.61321,
      "lon": 108.1675
    }
  },
  {
    "name_translations": {
      "en": "Ostersund",
      "pl": "Ostersund"
    },
    "country_code": "SE",
    "code": "OSD",
    "time_zone": "Europe/Stockholm",
    "name": "Ostersund",
    "coordinates": {
      "lat": 63.198612,
      "lon": 14.494444
    }
  },
  {
    "name_translations": {
      "en": "Hakkari",
      "pl": "Hakkari"
    },
    "country_code": "TR",
    "code": "YKO",
    "time_zone": "Europe/Istanbul",
    "name": "Hakkari",
    "coordinates": {
      "lat": 37.576389,
      "lon": 43.736667
    }
  },
  {
    "name_translations": {
      "en": "Tuxtla Gutierrez",
      "pl": "Tuxtla Gutierrez"
    },
    "country_code": "MX",
    "code": "TGZ",
    "time_zone": "America/Mexico_City",
    "name": "Tuxtla Gutierrez",
    "coordinates": {
      "lat": 16.56361,
      "lon": -93.0225
    }
  },
  {
    "name_translations": {
      "en": "Mersin",
      "pl": "Mersin"
    },
    "country_code": "TR",
    "code": "COV",
    "time_zone": "Turkey",
    "name": "Mersin",
    "coordinates": {
      "lat": 36.7999,
      "lon": 34.6165
    }
  },
  {
    "name_translations": {
      "en": "Kazan",
      "pl": "Kazan"
    },
    "country_code": "RU",
    "code": "KZN",
    "time_zone": "Europe/Moscow",
    "name": "Kazan",
    "coordinates": {
      "lat": 55.79083,
      "lon": 49.11444
    }
  },
  {
    "name_translations": {
      "en": "Sarajevo",
      "pl": "Sarajewo"
    },
    "country_code": "BA",
    "code": "SJJ",
    "time_zone": "Europe/Sarajevo",
    "name": "Sarajevo",
    "coordinates": {
      "lat": 43.826687,
      "lon": 18.336065
    }
  },
  {
    "name_translations": {
      "en": "Ndjamena",
      "pl": "Ndjamena"
    },
    "country_code": "TD",
    "code": "NDJ",
    "time_zone": "Africa/Ndjamena",
    "name": "Ndjamena",
    "coordinates": {
      "lat": 12.129056,
      "lon": 15.034215
    }
  },
  {
    "name_translations": {
      "en": "Nampula",
      "pl": "Nampula"
    },
    "country_code": "MZ",
    "code": "APL",
    "time_zone": "Africa/Maputo",
    "name": "Nampula",
    "coordinates": {
      "lat": -15.101667,
      "lon": 39.287224
    }
  },
  {
    "name_translations": {
      "en": "Memphis",
      "pl": "Memphis"
    },
    "country_code": "US",
    "code": "MEM",
    "time_zone": "America/Chicago",
    "name": "Memphis",
    "coordinates": {
      "lat": 35.1495343,
      "lon": -90.0489801
    }
  },
  {
    "name_translations": {
      "en": "Hammerfest",
      "pl": "Hammerfest"
    },
    "country_code": "NO",
    "code": "HFT",
    "time_zone": "Europe/Oslo",
    "name": "Hammerfest",
    "coordinates": {
      "lat": 70.67999,
      "lon": 23.675867
    }
  },
  {
    "name_translations": {
      "en": "Maamigili",
      "pl": "Maamigili"
    },
    "country_code": "MV",
    "code": "VAM",
    "time_zone": "Indian/Maldives",
    "name": "Maamigili",
    "coordinates": {
      "lat": 3.47085,
      "lon": 72.83503
    }
  },
  {
    "name_translations": {
      "en": "Kapalua",
      "pl": "Kapalua"
    },
    "country_code": "US",
    "code": "JHM",
    "time_zone": "Pacific/Honolulu",
    "name": "Kapalua",
    "coordinates": {
      "lat": 20.962194,
      "lon": -156.67569
    }
  },
  {
    "name_translations": {
      "en": "Shirnak",
      "pl": "Şırnak"
    },
    "country_code": "TR",
    "code": "NKT",
    "time_zone": "Europe/Istanbul",
    "name": "Shirnak",
    "coordinates": {
      "lat": 37.516389,
      "lon": 42.461111
    }
  },
  {
    "name_translations": {
      "en": "Quincy",
      "pl": "Quincy"
    },
    "country_code": "US",
    "code": "UIN",
    "time_zone": "America/Chicago",
    "name": "Quincy",
    "coordinates": {
      "lat": 39.944168,
      "lon": -91.19722
    }
  },
  {
    "name_translations": {
      "en": "Tikehau Atoll",
      "pl": "Tikehau Atoll"
    },
    "country_code": "PF",
    "code": "TIH",
    "time_zone": "Pacific/Tahiti",
    "name": "Tikehau Atoll",
    "coordinates": {
      "lat": -15.118639,
      "lon": -148.2338
    }
  },
  {
    "name_translations": {
      "en": "Tyumen",
      "pl": "Tyumen"
    },
    "country_code": "RU",
    "code": "TJM",
    "time_zone": "Asia/Yekaterinburg",
    "name": "Tyumen",
    "coordinates": {
      "lat": 57.181828,
      "lon": 65.35024
    }
  },
  {
    "name_translations": {
      "en": "Prince George",
      "pl": "Prince George"
    },
    "country_code": "CA",
    "code": "YXS",
    "time_zone": "America/Vancouver",
    "name": "Prince George",
    "coordinates": {
      "lat": 53.91848,
      "lon": -122.776584
    }
  },
  {
    "name_translations": {
      "en": "Huron",
      "pl": "Huron"
    },
    "country_code": "US",
    "code": "HON",
    "time_zone": "America/Chicago",
    "name": "Huron",
    "coordinates": {
      "lat": 44.38361,
      "lon": -98.22639
    }
  },
  {
    "name_translations": {
      "en": "Chokurdah",
      "pl": "Chokurdah"
    },
    "country_code": "RU",
    "code": "CKH",
    "time_zone": "Asia/Srednekolymsk",
    "name": "Chokurdah",
    "coordinates": {
      "lat": 70.63333,
      "lon": 147.88333
    }
  },
  {
    "name_translations": {
      "en": "Now Shahr",
      "pl": "Now Shahr"
    },
    "country_code": "IR",
    "code": "NSH",
    "time_zone": "Asia/Tehran",
    "name": "Now Shahr",
    "coordinates": {
      "lat": 36.666668,
      "lon": 51.5
    }
  },
  {
    "name_translations": {
      "en": "Liege",
      "pl": "Liege"
    },
    "country_code": "BE",
    "code": "LGG",
    "time_zone": "Europe/Brussels",
    "name": "Liege",
    "coordinates": {
      "lat": 50.63333,
      "lon": 5.56666
    }
  },
  {
    "name_translations": {
      "en": "Yola",
      "pl": "Yola"
    },
    "country_code": "NG",
    "code": "YOL",
    "time_zone": "Africa/Lagos",
    "name": "Yola",
    "coordinates": {
      "lat": 9.266111,
      "lon": 12.432222
    }
  },
  {
    "name_translations": {
      "en": "Wanganui",
      "pl": "Wanganui"
    },
    "country_code": "NZ",
    "code": "WAG",
    "time_zone": "Pacific/Auckland",
    "name": "Wanganui",
    "coordinates": {
      "lat": -39.960922,
      "lon": 175.02444
    }
  },
  {
    "name_translations": {
      "en": "Tulear",
      "pl": "Tulear"
    },
    "country_code": "MG",
    "code": "TLE",
    "time_zone": "Indian/Antananarivo",
    "name": "Tulear",
    "coordinates": {
      "lat": -23.389723,
      "lon": 43.724167
    }
  },
  {
    "name_translations": {
      "en": "Keperveyem",
      "pl": "Keperveyem"
    },
    "country_code": "RU",
    "code": "KPW",
    "time_zone": "Asia/Kamchatka",
    "name": "Keperveyem",
    "coordinates": {
      "lat": 67.84056,
      "lon": 166.13917
    }
  },
  {
    "name_translations": {
      "en": "Campina Grande",
      "pl": "Campina Grande"
    },
    "country_code": "BR",
    "code": "CPV",
    "time_zone": "America/Fortaleza",
    "name": "Campina Grande",
    "coordinates": {
      "lat": -7.266667,
      "lon": -35.9
    }
  },
  {
    "name_translations": {
      "en": "Ouarzazate",
      "pl": "Ouarzazate"
    },
    "country_code": "MA",
    "code": "OZZ",
    "time_zone": "Africa/Casablanca",
    "name": "Ouarzazate",
    "coordinates": {
      "lat": 30.916668,
      "lon": -6.916667
    }
  },
  {
    "name_translations": {
      "en": "Geraldton",
      "pl": "Geraldton"
    },
    "country_code": "AU",
    "code": "GET",
    "time_zone": "Australia/Perth",
    "name": "Geraldton",
    "coordinates": {
      "lat": -28.796078,
      "lon": 114.70205
    }
  },
  {
    "name_translations": {
      "en": "Dakhla",
      "pl": "Dakhla"
    },
    "country_code": "MA",
    "code": "VIL",
    "time_zone": "Africa/Casablanca",
    "name": "Dakhla",
    "coordinates": {
      "lat": 23.713333,
      "lon": -15.935
    }
  },
  {
    "name_translations": {
      "en": "Diyarbakir",
      "pl": "Diyarbakir"
    },
    "country_code": "TR",
    "code": "DIY",
    "time_zone": "Europe/Istanbul",
    "name": "Diyarbakir",
    "coordinates": {
      "lat": 37.903873,
      "lon": 40.20458
    }
  },
  {
    "name_translations": {
      "en": "Chengdu",
      "pl": "Chengdu"
    },
    "country_code": "CN",
    "code": "CTU",
    "time_zone": "Asia/Shanghai",
    "name": "Chengdu",
    "coordinates": {
      "lat": 30.581135,
      "lon": 103.9568
    }
  },
  {
    "name_translations": {
      "en": "Bahrain",
      "pl": "Bahrajn"
    },
    "country_code": "BH",
    "code": "BAH",
    "time_zone": "Asia/Bahrain",
    "name": "Bahrain",
    "coordinates": {
      "lat": 26.26918,
      "lon": 50.62605
    }
  },
  {
    "name_translations": {
      "en": "Gibraltar",
      "pl": "Gibraltar"
    },
    "country_code": "GI",
    "code": "GIB",
    "time_zone": "Europe/Gibraltar",
    "name": "Gibraltar",
    "coordinates": {
      "lat": 36.153763,
      "lon": -5.349271
    }
  },
  {
    "name_translations": {
      "en": "Genoa",
      "pl": "Genua"
    },
    "country_code": "IT",
    "code": "GOA",
    "time_zone": "Europe/Rome",
    "name": "Genoa",
    "coordinates": {
      "lat": 44.415066,
      "lon": 8.85081
    }
  },
  {
    "name_translations": {
      "en": "Catarman",
      "pl": "Catarman"
    },
    "country_code": "PH",
    "code": "CRM",
    "time_zone": "Asia/Manila",
    "name": "Catarman",
    "coordinates": {
      "lat": 12.483333,
      "lon": 124.583336
    }
  },
  {
    "name_translations": {
      "en": "Unalakleet",
      "pl": "Unalakleet, AK"
    },
    "country_code": "US",
    "code": "UNK",
    "time_zone": "America/Anchorage",
    "name": "Unalakleet",
    "coordinates": {
      "lat": 63.881927,
      "lon": -160.79944
    }
  },
  {
    "name_translations": {
      "en": "Luxembourg",
      "pl": "Luksemburg"
    },
    "country_code": "LU",
    "code": "LUX",
    "time_zone": "Europe/Luxembourg",
    "name": "Luxembourg",
    "coordinates": {
      "lat": 49.63111,
      "lon": 6.209539
    }
  },
  {
    "name_translations": {
      "en": "Liuzhou",
      "pl": "Liuzhou"
    },
    "country_code": "CN",
    "code": "LZH",
    "time_zone": "Asia/Shanghai",
    "name": "Liuzhou",
    "coordinates": {
      "lat": 24.206156,
      "lon": 109.39843
    }
  },
  {
    "name_translations": {
      "en": "Chelyabinsk",
      "pl": "Czelabińsk"
    },
    "country_code": "RU",
    "code": "CEK",
    "time_zone": "Asia/Yekaterinburg",
    "name": "Chelyabinsk",
    "coordinates": {
      "lat": 55.297504,
      "lon": 61.51235
    }
  },
  {
    "name_translations": {
      "en": "Tumbes",
      "pl": "Tumbes"
    },
    "country_code": "PE",
    "code": "TBP",
    "time_zone": "America/Lima",
    "name": "Tumbes",
    "coordinates": {
      "lat": -3.566667,
      "lon": -80.416664
    }
  },
  {
    "name_translations": {
      "en": "Wick",
      "pl": "Wick"
    },
    "country_code": "GB",
    "code": "WIC",
    "time_zone": "Europe/London",
    "name": "Wick",
    "coordinates": {
      "lat": 58.456944,
      "lon": -3.086667
    }
  },
  {
    "name_translations": {
      "en": "Paraburdoo",
      "pl": "Paraburdoo"
    },
    "country_code": "AU",
    "code": "PBO",
    "time_zone": "Australia/Perth",
    "name": "Paraburdoo",
    "coordinates": {
      "lat": -23.173908,
      "lon": 117.748
    }
  },
  {
    "name_translations": {
      "en": "Punta Arenas",
      "pl": "Punta Arenas"
    },
    "country_code": "CL",
    "code": "PUQ",
    "time_zone": "America/Santiago",
    "name": "Punta Arenas",
    "coordinates": {
      "lat": -53.005356,
      "lon": -70.84307
    }
  },
  {
    "name_translations": {
      "en": "Grenoble",
      "pl": "Grenoble"
    },
    "country_code": "FR",
    "code": "GNB",
    "time_zone": "Europe/Paris",
    "name": "Grenoble",
    "coordinates": {
      "lat": 45.171546,
      "lon": 5.722387
    }
  },
  {
    "name_translations": {
      "en": "Sandspit",
      "pl": "Sandspit"
    },
    "country_code": "CA",
    "code": "YZP",
    "time_zone": "America/Vancouver",
    "name": "Sandspit",
    "coordinates": {
      "lat": 53.254444,
      "lon": -131.81277
    }
  },
  {
    "name_translations": {
      "en": "Beziers",
      "pl": "Beziers"
    },
    "country_code": "FR",
    "code": "BZR",
    "time_zone": "Europe/Paris",
    "name": "Beziers",
    "coordinates": {
      "lat": 43.324165,
      "lon": 3.354444
    }
  },
  {
    "name_translations": {
      "en": "Washington",
      "pl": "Waszyngton"
    },
    "country_code": "US",
    "code": "WAS",
    "time_zone": "America/New_York",
    "name": "Washington",
    "coordinates": {
      "lat": 38.8951118,
      "lon": -77.0363658
    }
  },
  {
    "name_translations": {
      "en": "Lamerd",
      "pl": "Lamerd"
    },
    "country_code": "IR",
    "code": "LFM",
    "time_zone": "Asia/Tehran",
    "name": "Lamerd",
    "coordinates": {
      "lat": 27.37412,
      "lon": 53.190926
    }
  },
  {
    "name_translations": {
      "en": "Owensboro",
      "pl": "Owensboro"
    },
    "country_code": "US",
    "code": "OWB",
    "time_zone": "America/Chicago",
    "name": "Owensboro",
    "coordinates": {
      "lat": 37.740833,
      "lon": -87.16583
    }
  },
  {
    "name_translations": {
      "en": "Punta Gorda",
      "pl": "Punta Garda"
    },
    "country_code": "US",
    "code": "PGD",
    "time_zone": "America/New_York",
    "name": "Punta Gorda",
    "coordinates": {
      "lat": 26.919167,
      "lon": -81.99139
    }
  },
  {
    "name_translations": {
      "en": "Saint Lucia",
      "pl": "St Lucia"
    },
    "country_code": "LC",
    "code": "SLU",
    "time_zone": "America/St_Lucia",
    "name": "Saint Lucia",
    "coordinates": {
      "lat": 13.994143,
      "lon": -61.006863
    }
  },
  {
    "name_translations": {
      "en": "Tunis",
      "pl": "Tunis"
    },
    "country_code": "TN",
    "code": "TUN",
    "time_zone": "Africa/Tunis",
    "name": "Tunis",
    "coordinates": {
      "lat": 36.847622,
      "lon": 10.21709
    }
  },
  {
    "name_translations": {
      "en": "Sao Tome Island",
      "pl": "Sao Tome"
    },
    "country_code": "ST",
    "code": "TMS",
    "time_zone": "Africa/Sao_Tome",
    "name": "Sao Tome Island",
    "coordinates": {
      "lat": 0.378333,
      "lon": 6.725
    }
  },
  {
    "name_translations": {
      "en": "Longyearbyen",
      "pl": "Longyearbyen"
    },
    "country_code": "SJ",
    "code": "LYR",
    "time_zone": "Arctic/Longyearbyen",
    "name": "Longyearbyen",
    "coordinates": {
      "lat": 78.208885,
      "lon": 15.8
    }
  },
  {
    "name_translations": {
      "en": "Christmas Island",
      "pl": "Wyspa Bożego Narodzenia"
    },
    "country_code": "CX",
    "code": "XCH",
    "time_zone": "Indian/Christmas",
    "name": "Christmas Island",
    "coordinates": {
      "lat": -10.5,
      "lon": 105.666664
    }
  },
  {
    "name_translations": {
      "en": "Ust-Kut",
      "pl": "Ust-Kut"
    },
    "country_code": "RU",
    "code": "UKX",
    "time_zone": "Asia/Irkutsk",
    "name": "Ust-Kut",
    "coordinates": {
      "lat": 56.85,
      "lon": 105.73333
    }
  },
  {
    "name_translations": {
      "en": "Suva",
      "pl": "Suva"
    },
    "country_code": "FJ",
    "code": "SUV",
    "time_zone": "Pacific/Fiji",
    "name": "Suva",
    "coordinates": {
      "lat": -18.045885,
      "lon": 178.55981
    }
  },
  {
    "name_translations": {
      "en": "Wenzhou",
      "pl": "Wenzhou"
    },
    "country_code": "CN",
    "code": "WNZ",
    "time_zone": "Asia/Shanghai",
    "name": "Wenzhou",
    "coordinates": {
      "lat": 27.91566,
      "lon": 120.84738
    }
  },
  {
    "name_translations": {
      "en": "Catamarca",
      "pl": "Catamarca"
    },
    "country_code": "AR",
    "code": "CTC",
    "time_zone": "America/Argentina/Catamarca",
    "name": "Catamarca",
    "coordinates": {
      "lat": -28.448334,
      "lon": -65.779724
    }
  },
  {
    "name_translations": {
      "en": "Dusseldorf",
      "pl": "Dusseldorf"
    },
    "country_code": "DE",
    "code": "DUS",
    "time_zone": "Europe/Berlin",
    "name": "Dusseldorf",
    "coordinates": {
      "lat": 51.2249429,
      "lon": 6.7756524
    }
  },
  {
    "name_translations": {
      "en": "Fergana",
      "pl": "Kotlina Fergańska"
    },
    "country_code": "UZ",
    "code": "FEG",
    "time_zone": "Asia/Tashkent",
    "name": "Fergana",
    "coordinates": {
      "lat": 40.350277,
      "lon": 71.73361
    }
  },
  {
    "name_translations": {
      "en": "Graz",
      "pl": "Graz"
    },
    "country_code": "AT",
    "code": "GRZ",
    "time_zone": "Europe/Vienna",
    "name": "Graz",
    "coordinates": {
      "lat": 46.994125,
      "lon": 15.444928
    }
  },